[
    {
        "id": 174968,
        "name": "Aygavan",
        "country": "AM",
        "coord": {
            "lon": 44.669842,
            "lat": 39.87326
        }
    },
    {
        "id": 616053,
        "name": "Yerazgavors",
        "country": "AM",
        "coord": {
            "lon": 43.75,
            "lat": 40.700001
        }
    },
    {
        "id": 616071,
        "name": "Voskevaz",
        "country": "AM",
        "coord": {
            "lon": 44.29509,
            "lat": 40.276779
        }
    },
    {
        "id": 616097,
        "name": "Verin Dvin",
        "country": "AM",
        "coord": {
            "lon": 44.590382,
            "lat": 40.024342
        }
    },
    {
        "id": 616119,
        "name": "Vaghashen",
        "country": "AM",
        "coord": {
            "lon": 45.328789,
            "lat": 40.13578
        }
    },
    {
        "id": 616120,
        "name": "Vahagni",
        "country": "AM",
        "coord": {
            "lon": 44.60873,
            "lat": 40.906979
        }
    },
    {
        "id": 616464,
        "name": "Lukashin",
        "country": "AM",
        "coord": {
            "lon": 44.018608,
            "lat": 40.175831
        }
    },
    {
        "id": 616492,
        "name": "Lanjaghbyur",
        "country": "AM",
        "coord": {
            "lon": 45.140381,
            "lat": 40.271461
        }
    },
    {
        "id": 616523,
        "name": "Kosh",
        "country": "AM",
        "coord": {
            "lon": 44.155842,
            "lat": 40.299992
        }
    },
    {
        "id": 616572,
        "name": "Karchaghbyur",
        "country": "AM",
        "coord": {
            "lon": 45.57785,
            "lat": 40.170479
        }
    },
    {
        "id": 616576,
        "name": "Karanlukh",
        "country": "AM",
        "coord": {
            "lon": 45.289719,
            "lat": 40.104439
        }
    },
    {
        "id": 616668,
        "name": "Getazat",
        "country": "AM",
        "coord": {
            "lon": 44.56369,
            "lat": 40.038441
        }
    },
    {
        "id": 616763,
        "name": "Darpas",
        "country": "AM",
        "coord": {
            "lon": 44.424938,
            "lat": 40.836739
        }
    },
    {
        "id": 616789,
        "name": "Bjni",
        "country": "AM",
        "coord": {
            "lon": 44.648121,
            "lat": 40.455898
        }
    },
    {
        "id": 616791,
        "name": "Byurakan",
        "country": "AM",
        "coord": {
            "lon": 44.271381,
            "lat": 40.338001
        }
    },
    {
        "id": 616806,
        "name": "Bazum",
        "country": "AM",
        "coord": {
            "lon": 44.439781,
            "lat": 40.86763
        }
    },
    {
        "id": 616828,
        "name": "Bagratashen",
        "country": "AM",
        "coord": {
            "lon": 44.817371,
            "lat": 41.24358
        }
    },
    {
        "id": 616853,
        "name": "Aknalich",
        "country": "AM",
        "coord": {
            "lon": 44.149799,
            "lat": 40.14315
        }
    },
    {
        "id": 616879,
        "name": "Ashnak",
        "country": "AM",
        "coord": {
            "lon": 43.91848,
            "lat": 40.328869
        }
    },
    {
        "id": 616921,
        "name": "Arevashat",
        "country": "AM",
        "coord": {
            "lon": 44.370682,
            "lat": 40.142502
        }
    },
    {
        "id": 616954,
        "name": "Apaga",
        "country": "AM",
        "coord": {
            "lon": 44.251572,
            "lat": 40.096661
        }
    },
    {
        "id": 616955,
        "name": "Anushavan",
        "country": "AM",
        "coord": {
            "lon": 43.977558,
            "lat": 40.650131
        }
    },
    {
        "id": 616981,
        "name": "Akunk",
        "country": "AM",
        "coord": {
            "lon": 44.684811,
            "lat": 40.268829
        }
    },
    {
        "id": 617003,
        "name": "Aghavnadzor",
        "country": "AM",
        "coord": {
            "lon": 44.695808,
            "lat": 40.581951
        }
    },
    {
        "id": 617027,
        "name": "Abovyan",
        "country": "AM",
        "coord": {
            "lon": 44.547421,
            "lat": 40.048512
        }
    },
    {
        "id": 823755,
        "name": "Artsvaberd",
        "country": "AM",
        "coord": {
            "lon": 45.471111,
            "lat": 40.833611
        }
    },
    {
        "id": 823791,
        "name": "Nor Yerznka",
        "country": "AM",
        "coord": {
            "lon": 44.404831,
            "lat": 40.31356
        }
    },
    {
        "id": 823805,
        "name": "Lenughi",
        "country": "AM",
        "coord": {
            "lon": 43.96484,
            "lat": 40.125622
        }
    },
    {
        "id": 823808,
        "name": "Gay",
        "country": "AM",
        "coord": {
            "lon": 44.305561,
            "lat": 40.083889
        }
    },
    {
        "id": 866137,
        "name": "Mrgavet",
        "country": "AM",
        "coord": {
            "lon": 44.482521,
            "lat": 40.02779
        }
    },
    {
        "id": 866138,
        "name": "Arevabuyr",
        "country": "AM",
        "coord": {
            "lon": 44.469341,
            "lat": 40.037121
        }
    },
    {
        "id": 174706,
        "name": "Yenikend",
        "country": "AM",
        "coord": {
            "lon": 44.731709,
            "lat": 39.906109
        }
    },
    {
        "id": 616199,
        "name": "Spitak",
        "country": "AM",
        "coord": {
            "lon": 44.2673,
            "lat": 40.832199
        }
    },
    {
        "id": 174703,
        "name": "Zarritap",
        "country": "AM",
        "coord": {
            "lon": 45.51162,
            "lat": 39.637321
        }
    },
    {
        "id": 174704,
        "name": "Zangakatun",
        "country": "AM",
        "coord": {
            "lon": 45.04063,
            "lat": 39.821201
        }
    },
    {
        "id": 174709,
        "name": "Yeghegnavan",
        "country": "AM",
        "coord": {
            "lon": 44.625309,
            "lat": 39.83799
        }
    },
    {
        "id": 174713,
        "name": "Vostan",
        "country": "AM",
        "coord": {
            "lon": 44.559368,
            "lat": 39.965149
        }
    },
    {
        "id": 174716,
        "name": "Vernashen",
        "country": "AM",
        "coord": {
            "lon": 45.363892,
            "lat": 39.792358
        }
    },
    {
        "id": 174717,
        "name": "Verishen",
        "country": "AM",
        "coord": {
            "lon": 46.31221,
            "lat": 39.535568
        }
    },
    {
        "id": 174725,
        "name": "Vedi",
        "country": "AM",
        "coord": {
            "lon": 44.722172,
            "lat": 39.914211
        }
    },
    {
        "id": 174726,
        "name": "Vayk",
        "country": "AM",
        "coord": {
            "lon": 45.46653,
            "lat": 39.691002
        }
    },
    {
        "id": 174743,
        "name": "Tegh",
        "country": "AM",
        "coord": {
            "lon": 46.47723,
            "lat": 39.557919
        }
    },
    {
        "id": 174755,
        "name": "Surenavan",
        "country": "AM",
        "coord": {
            "lon": 44.799999,
            "lat": 39.75
        }
    },
    {
        "id": 174764,
        "name": "Sisavan",
        "country": "AM",
        "coord": {
            "lon": 44.666672,
            "lat": 39.900002
        }
    },
    {
        "id": 174769,
        "name": "Shinuhayr",
        "country": "AM",
        "coord": {
            "lon": 46.317871,
            "lat": 39.436699
        }
    },
    {
        "id": 174775,
        "name": "Shahumyan",
        "country": "AM",
        "coord": {
            "lon": 44.569729,
            "lat": 39.93845
        }
    },
    {
        "id": 174776,
        "name": "Shatin",
        "country": "AM",
        "coord": {
            "lon": 45.301861,
            "lat": 39.835678
        }
    },
    {
        "id": 174782,
        "name": "Shaghat",
        "country": "AM",
        "coord": {
            "lon": 45.91433,
            "lat": 39.562531
        }
    },
    {
        "id": 174794,
        "name": "Rrind",
        "country": "AM",
        "coord": {
            "lon": 45.17907,
            "lat": 39.76022
        }
    },
    {
        "id": 174805,
        "name": "Noyakert",
        "country": "AM",
        "coord": {
            "lon": 44.668991,
            "lat": 39.8312
        }
    },
    {
        "id": 174820,
        "name": "Mrgavan",
        "country": "AM",
        "coord": {
            "lon": 44.53318,
            "lat": 39.971668
        }
    },
    {
        "id": 174828,
        "name": "Malishka",
        "country": "AM",
        "coord": {
            "lon": 45.390041,
            "lat": 39.737579
        }
    },
    {
        "id": 174849,
        "name": "Khndzoresk",
        "country": "AM",
        "coord": {
            "lon": 46.432838,
            "lat": 39.512241
        }
    },
    {
        "id": 174907,
        "name": "Getap",
        "country": "AM",
        "coord": {
            "lon": 45.306641,
            "lat": 39.763062
        }
    },
    {
        "id": 174918,
        "name": "Dzorastan",
        "country": "AM",
        "coord": {
            "lon": 46.357201,
            "lat": 39.270592
        }
    },
    {
        "id": 174931,
        "name": "Dalar",
        "country": "AM",
        "coord": {
            "lon": 44.526489,
            "lat": 39.976528
        }
    },
    {
        "id": 174940,
        "name": "Burastan",
        "country": "AM",
        "coord": {
            "lon": 44.5,
            "lat": 39.98333
        }
    },
    {
        "id": 174941,
        "name": "Brun",
        "country": "AM",
        "coord": {
            "lon": 46.30732,
            "lat": 39.534908
        }
    },
    {
        "id": 174942,
        "name": "Brrnakot",
        "country": "AM",
        "coord": {
            "lon": 45.972408,
            "lat": 39.497421
        }
    },
    {
        "id": 174947,
        "name": "Berkanush",
        "country": "AM",
        "coord": {
            "lon": 44.513939,
            "lat": 39.977261
        }
    },
    {
        "id": 174964,
        "name": "Aygezard",
        "country": "AM",
        "coord": {
            "lon": 44.602299,
            "lat": 39.954361
        }
    },
    {
        "id": 174965,
        "name": "Aygepat",
        "country": "AM",
        "coord": {
            "lon": 44.599819,
            "lat": 39.95845
        }
    },
    {
        "id": 174969,
        "name": "Avshar",
        "country": "AM",
        "coord": {
            "lon": 44.679298,
            "lat": 39.8536
        }
    },
    {
        "id": 174980,
        "name": "Yeghegis",
        "country": "AM",
        "coord": {
            "lon": 45.36002,
            "lat": 39.871811
        }
    },
    {
        "id": 174983,
        "name": "Armash",
        "country": "AM",
        "coord": {
            "lon": 44.809021,
            "lat": 39.76532
        }
    },
    {
        "id": 174984,
        "name": "Areni",
        "country": "AM",
        "coord": {
            "lon": 45.179909,
            "lat": 39.719131
        }
    },
    {
        "id": 174997,
        "name": "Angeghakot",
        "country": "AM",
        "coord": {
            "lon": 45.941231,
            "lat": 39.570171
        }
    },
    {
        "id": 175002,
        "name": "Aghavnadzor",
        "country": "AM",
        "coord": {
            "lon": 45.227531,
            "lat": 39.782219
        }
    },
    {
        "id": 175006,
        "name": "Agarakadzor",
        "country": "AM",
        "coord": {
            "lon": 45.352741,
            "lat": 39.734051
        }
    },
    {
        "id": 391233,
        "name": "Aralek",
        "country": "AM",
        "coord": {
            "lon": 44.651402,
            "lat": 39.901951
        }
    },
    {
        "id": 612561,
        "name": "Horrom",
        "country": "AM",
        "coord": {
            "lon": 43.888191,
            "lat": 40.660118
        }
    },
    {
        "id": 613075,
        "name": "Margara",
        "country": "AM",
        "coord": {
            "lon": 44.17709,
            "lat": 40.033508
        }
    },
    {
        "id": 616034,
        "name": "Zovuni",
        "country": "AM",
        "coord": {
            "lon": 44.42889,
            "lat": 40.51083
        }
    },
    {
        "id": 616037,
        "name": "Zovaber",
        "country": "AM",
        "coord": {
            "lon": 44.788269,
            "lat": 40.566929
        }
    },
    {
        "id": 616039,
        "name": "Zorak",
        "country": "AM",
        "coord": {
            "lon": 44.39209,
            "lat": 40.091091
        }
    },
    {
        "id": 616046,
        "name": "Zarr",
        "country": "AM",
        "coord": {
            "lon": 44.730862,
            "lat": 40.259499
        }
    },
    {
        "id": 616055,
        "name": "Yeraskhahun",
        "country": "AM",
        "coord": {
            "lon": 44.21619,
            "lat": 40.071671
        }
    },
    {
        "id": 616056,
        "name": "Yeranos",
        "country": "AM",
        "coord": {
            "lon": 45.192089,
            "lat": 40.204281
        }
    },
    {
        "id": 616060,
        "name": "Yeghegnut",
        "country": "AM",
        "coord": {
            "lon": 44.63155,
            "lat": 40.903019
        }
    },
    {
        "id": 616061,
        "name": "Yeghegnut",
        "country": "AM",
        "coord": {
            "lon": 44.160179,
            "lat": 40.091862
        }
    },
    {
        "id": 616065,
        "name": "Yeghvard",
        "country": "AM",
        "coord": {
            "lon": 44.48138,
            "lat": 40.32053
        }
    },
    {
        "id": 616072,
        "name": "Voskevan",
        "country": "AM",
        "coord": {
            "lon": 45.065319,
            "lat": 41.12022
        }
    },
    {
        "id": 616076,
        "name": "Voskehask",
        "country": "AM",
        "coord": {
            "lon": 43.774738,
            "lat": 40.764259
        }
    },
    {
        "id": 616094,
        "name": "Verin Getashen",
        "country": "AM",
        "coord": {
            "lon": 45.250679,
            "lat": 40.133282
        }
    },
    {
        "id": 616100,
        "name": "Verin Artashat",
        "country": "AM",
        "coord": {
            "lon": 44.585461,
            "lat": 39.990459
        }
    },
    {
        "id": 616101,
        "name": "Verin Akhtala",
        "country": "AM",
        "coord": {
            "lon": 44.75811,
            "lat": 41.168381
        }
    },
    {
        "id": 616103,
        "name": "Varser",
        "country": "AM",
        "coord": {
            "lon": 44.906898,
            "lat": 40.553398
        }
    },
    {
        "id": 616108,
        "name": "Vardenis",
        "country": "AM",
        "coord": {
            "lon": 45.731098,
            "lat": 40.18272
        }
    },
    {
        "id": 616109,
        "name": "Vardenik",
        "country": "AM",
        "coord": {
            "lon": 45.433418,
            "lat": 40.139278
        }
    },
    {
        "id": 616121,
        "name": "Ushi",
        "country": "AM",
        "coord": {
            "lon": 44.37252,
            "lat": 40.34869
        }
    },
    {
        "id": 616123,
        "name": "Urrut",
        "country": "AM",
        "coord": {
            "lon": 44.396278,
            "lat": 41.06778
        }
    },
    {
        "id": 616136,
        "name": "Tsovinar",
        "country": "AM",
        "coord": {
            "lon": 45.461319,
            "lat": 40.157009
        }
    },
    {
        "id": 616137,
        "name": "Tsovazard",
        "country": "AM",
        "coord": {
            "lon": 45.058788,
            "lat": 40.470901
        }
    },
    {
        "id": 616138,
        "name": "Tsovak",
        "country": "AM",
        "coord": {
            "lon": 45.632858,
            "lat": 40.182541
        }
    },
    {
        "id": 616139,
        "name": "Tsovagyugh",
        "country": "AM",
        "coord": {
            "lon": 44.957378,
            "lat": 40.630291
        }
    },
    {
        "id": 616150,
        "name": "Tsaghkunk",
        "country": "AM",
        "coord": {
            "lon": 44.27026,
            "lat": 40.180752
        }
    },
    {
        "id": 616158,
        "name": "Tsaghkahovit",
        "country": "AM",
        "coord": {
            "lon": 44.222408,
            "lat": 40.634281
        }
    },
    {
        "id": 616159,
        "name": "Tsaghkaber",
        "country": "AM",
        "coord": {
            "lon": 44.10144,
            "lat": 40.798489
        }
    },
    {
        "id": 616160,
        "name": "Tsaghkadzor",
        "country": "AM",
        "coord": {
            "lon": 44.720249,
            "lat": 40.532589
        }
    },
    {
        "id": 616174,
        "name": "Tazagyugh",
        "country": "AM",
        "coord": {
            "lon": 45.19096,
            "lat": 40.138199
        }
    },
    {
        "id": 616184,
        "name": "Tandzut",
        "country": "AM",
        "coord": {
            "lon": 44.07476,
            "lat": 40.070148
        }
    },
    {
        "id": 616187,
        "name": "Talin",
        "country": "AM",
        "coord": {
            "lon": 43.873871,
            "lat": 40.384281
        }
    },
    {
        "id": 616202,
        "name": "Spandaryan",
        "country": "AM",
        "coord": {
            "lon": 44.015511,
            "lat": 40.661049
        }
    },
    {
        "id": 616208,
        "name": "Sovetakan",
        "country": "AM",
        "coord": {
            "lon": 44.051079,
            "lat": 40.107121
        }
    },
    {
        "id": 616211,
        "name": "Solak",
        "country": "AM",
        "coord": {
            "lon": 44.707958,
            "lat": 40.46439
        }
    },
    {
        "id": 616213,
        "name": "Sis",
        "country": "AM",
        "coord": {
            "lon": 44.38649,
            "lat": 40.06023
        }
    },
    {
        "id": 616220,
        "name": "Shnogh",
        "country": "AM",
        "coord": {
            "lon": 44.840431,
            "lat": 41.146931
        }
    },
    {
        "id": 616224,
        "name": "Shirak",
        "country": "AM",
        "coord": {
            "lon": 43.915821,
            "lat": 40.84042
        }
    },
    {
        "id": 616231,
        "name": "Shenavan",
        "country": "AM",
        "coord": {
            "lon": 43.928761,
            "lat": 40.054859
        }
    },
    {
        "id": 616255,
        "name": "Sarukhan",
        "country": "AM",
        "coord": {
            "lon": 45.130589,
            "lat": 40.290531
        }
    },
    {
        "id": 616259,
        "name": "Sarigyugh",
        "country": "AM",
        "coord": {
            "lon": 45.144859,
            "lat": 41.035309
        }
    },
    {
        "id": 616262,
        "name": "Saratak",
        "country": "AM",
        "coord": {
            "lon": 43.869148,
            "lat": 40.669922
        }
    },
    {
        "id": 616265,
        "name": "Saramech",
        "country": "AM",
        "coord": {
            "lon": 44.222198,
            "lat": 40.774872
        }
    },
    {
        "id": 616273,
        "name": "Sarahart",
        "country": "AM",
        "coord": {
            "lon": 44.214069,
            "lat": 40.87043
        }
    },
    {
        "id": 616278,
        "name": "Samaghar",
        "country": "AM",
        "coord": {
            "lon": 44.243309,
            "lat": 40.185162
        }
    },
    {
        "id": 616288,
        "name": "Ptghni",
        "country": "AM",
        "coord": {
            "lon": 44.584068,
            "lat": 40.25576
        }
    },
    {
        "id": 616289,
        "name": "Ptghunk",
        "country": "AM",
        "coord": {
            "lon": 44.363281,
            "lat": 40.165051
        }
    },
    {
        "id": 616290,
        "name": "Pshatavan",
        "country": "AM",
        "coord": {
            "lon": 44.066292,
            "lat": 40.038651
        }
    },
    {
        "id": 616291,
        "name": "Prroshyan",
        "country": "AM",
        "coord": {
            "lon": 44.416309,
            "lat": 40.248531
        }
    },
    {
        "id": 616297,
        "name": "Pokr Mantash",
        "country": "AM",
        "coord": {
            "lon": 44.046661,
            "lat": 40.640259
        }
    },
    {
        "id": 616299,
        "name": "Zoravan",
        "country": "AM",
        "coord": {
            "lon": 44.52319,
            "lat": 40.35326
        }
    },
    {
        "id": 616303,
        "name": "Pemzashen",
        "country": "AM",
        "coord": {
            "lon": 43.940208,
            "lat": 40.585098
        }
    },
    {
        "id": 616306,
        "name": "Parravakar",
        "country": "AM",
        "coord": {
            "lon": 45.367001,
            "lat": 40.981541
        }
    },
    {
        "id": 616320,
        "name": "Oshakan",
        "country": "AM",
        "coord": {
            "lon": 44.31456,
            "lat": 40.264599
        }
    },
    {
        "id": 616328,
        "name": "Hoktember",
        "country": "AM",
        "coord": {
            "lon": 44.009689,
            "lat": 40.132061
        }
    },
    {
        "id": 616330,
        "name": "Odzun",
        "country": "AM",
        "coord": {
            "lon": 44.613411,
            "lat": 41.053211
        }
    },
    {
        "id": 616340,
        "name": "Nor Gyugh",
        "country": "AM",
        "coord": {
            "lon": 44.6563,
            "lat": 40.2673
        }
    },
    {
        "id": 616341,
        "name": "Nor Geghi",
        "country": "AM",
        "coord": {
            "lon": 44.580269,
            "lat": 40.321049
        }
    },
    {
        "id": 616345,
        "name": "Norashen",
        "country": "AM",
        "coord": {
            "lon": 44.333359,
            "lat": 41.188862
        }
    },
    {
        "id": 616352,
        "name": "Nor Armavir",
        "country": "AM",
        "coord": {
            "lon": 43.99242,
            "lat": 40.085629
        }
    },
    {
        "id": 616356,
        "name": "Noramarg",
        "country": "AM",
        "coord": {
            "lon": 44.42403,
            "lat": 40.023842
        }
    },
    {
        "id": 616359,
        "name": "Norakert",
        "country": "AM",
        "coord": {
            "lon": 44.34774,
            "lat": 40.192291
        }
    },
    {
        "id": 616361,
        "name": "Noratus",
        "country": "AM",
        "coord": {
            "lon": 45.177181,
            "lat": 40.375469
        }
    },
    {
        "id": 616375,
        "name": "Nerkin Getashen",
        "country": "AM",
        "coord": {
            "lon": 45.278999,
            "lat": 40.140461
        }
    },
    {
        "id": 616383,
        "name": "Navur",
        "country": "AM",
        "coord": {
            "lon": 45.341789,
            "lat": 40.86694
        }
    },
    {
        "id": 616385,
        "name": "Nalbandyan",
        "country": "AM",
        "coord": {
            "lon": 43.9869,
            "lat": 40.062359
        }
    },
    {
        "id": 616391,
        "name": "Musayelyan",
        "country": "AM",
        "coord": {
            "lon": 43.992741,
            "lat": 40.757671
        }
    },
    {
        "id": 616396,
        "name": "Hovtamej",
        "country": "AM",
        "coord": {
            "lon": 44.258621,
            "lat": 40.183472
        }
    },
    {
        "id": 616399,
        "name": "Mrgashen",
        "country": "AM",
        "coord": {
            "lon": 44.541069,
            "lat": 40.285229
        }
    },
    {
        "id": 616400,
        "name": "Mrgashat",
        "country": "AM",
        "coord": {
            "lon": 44.065842,
            "lat": 40.124619
        }
    },
    {
        "id": 616401,
        "name": "Mrganush",
        "country": "AM",
        "coord": {
            "lon": 44.558311,
            "lat": 40.028568
        }
    },
    {
        "id": 616403,
        "name": "Mosesgegh",
        "country": "AM",
        "coord": {
            "lon": 45.48637,
            "lat": 40.905708
        }
    },
    {
        "id": 616410,
        "name": "Mets Parni",
        "country": "AM",
        "coord": {
            "lon": 44.11042,
            "lat": 40.833351
        }
    },
    {
        "id": 616411,
        "name": "Mets Masrik",
        "country": "AM",
        "coord": {
            "lon": 45.768089,
            "lat": 40.21825
        }
    },
    {
        "id": 616412,
        "name": "Mets Mantash",
        "country": "AM",
        "coord": {
            "lon": 44.05653,
            "lat": 40.643761
        }
    },
    {
        "id": 616416,
        "name": "Metsavan",
        "country": "AM",
        "coord": {
            "lon": 44.228771,
            "lat": 41.201561
        }
    },
    {
        "id": 616418,
        "name": "Mertsavan",
        "country": "AM",
        "coord": {
            "lon": 44.400318,
            "lat": 40.1814
        }
    },
    {
        "id": 616421,
        "name": "Meghrashen",
        "country": "AM",
        "coord": {
            "lon": 43.957829,
            "lat": 40.672588
        }
    },
    {
        "id": 616424,
        "name": "Meghradzor",
        "country": "AM",
        "coord": {
            "lon": 44.65147,
            "lat": 40.60611
        }
    },
    {
        "id": 616429,
        "name": "Mayakovski",
        "country": "AM",
        "coord": {
            "lon": 44.639278,
            "lat": 40.251961
        }
    },
    {
        "id": 616441,
        "name": "Marmarashen",
        "country": "AM",
        "coord": {
            "lon": 44.470119,
            "lat": 40.057339
        }
    },
    {
        "id": 616442,
        "name": "Marmashen",
        "country": "AM",
        "coord": {
            "lon": 43.777901,
            "lat": 40.834862
        }
    },
    {
        "id": 616445,
        "name": "Margahovit",
        "country": "AM",
        "coord": {
            "lon": 44.684738,
            "lat": 40.73381
        }
    },
    {
        "id": 616453,
        "name": "Mayisyan",
        "country": "AM",
        "coord": {
            "lon": 43.839378,
            "lat": 40.847149
        }
    },
    {
        "id": 616456,
        "name": "Madina",
        "country": "AM",
        "coord": {
            "lon": 45.25507,
            "lat": 40.076382
        }
    },
    {
        "id": 616465,
        "name": "Lorut",
        "country": "AM",
        "coord": {
            "lon": 44.77142,
            "lat": 40.937168
        }
    },
    {
        "id": 616471,
        "name": "Lichk",
        "country": "AM",
        "coord": {
            "lon": 45.234669,
            "lat": 40.159328
        }
    },
    {
        "id": 616474,
        "name": "Lernavan",
        "country": "AM",
        "coord": {
            "lon": 44.16024,
            "lat": 40.7882
        }
    },
    {
        "id": 616476,
        "name": "Lerrnapat",
        "country": "AM",
        "coord": {
            "lon": 44.39344,
            "lat": 40.81538
        }
    },
    {
        "id": 616480,
        "name": "Lerrnanist",
        "country": "AM",
        "coord": {
            "lon": 44.792488,
            "lat": 40.466759
        }
    },
    {
        "id": 616481,
        "name": "Lerrnakert",
        "country": "AM",
        "coord": {
            "lon": 43.938511,
            "lat": 40.56118
        }
    },
    {
        "id": 616484,
        "name": "Khoronk",
        "country": "AM",
        "coord": {
            "lon": 44.245411,
            "lat": 40.135071
        }
    },
    {
        "id": 616488,
        "name": "Lchashen",
        "country": "AM",
        "coord": {
            "lon": 44.9319,
            "lat": 40.51757
        }
    },
    {
        "id": 616489,
        "name": "Lchap",
        "country": "AM",
        "coord": {
            "lon": 45.0728,
            "lat": 40.45462
        }
    },
    {
        "id": 616522,
        "name": "Kotayk",
        "country": "AM",
        "coord": {
            "lon": 44.660358,
            "lat": 40.275341
        }
    },
    {
        "id": 616535,
        "name": "Hnaberd",
        "country": "AM",
        "coord": {
            "lon": 44.140579,
            "lat": 40.637211
        }
    },
    {
        "id": 616537,
        "name": "Khashtarrak",
        "country": "AM",
        "coord": {
            "lon": 45.182098,
            "lat": 40.93668
        }
    },
    {
        "id": 616554,
        "name": "Kasakh",
        "country": "AM",
        "coord": {
            "lon": 44.410461,
            "lat": 40.536968
        }
    },
    {
        "id": 616573,
        "name": "Karbi",
        "country": "AM",
        "coord": {
            "lon": 44.376652,
            "lat": 40.332359
        }
    },
    {
        "id": 616590,
        "name": "Kaputan",
        "country": "AM",
        "coord": {
            "lon": 44.69693,
            "lat": 40.32407
        }
    },
    {
        "id": 616593,
        "name": "Kanakerravan",
        "country": "AM",
        "coord": {
            "lon": 44.53511,
            "lat": 40.247391
        }
    },
    {
        "id": 616598,
        "name": "Kamo",
        "country": "AM",
        "coord": {
            "lon": 43.95071,
            "lat": 40.825722
        }
    },
    {
        "id": 616617,
        "name": "Zhdanov",
        "country": "AM",
        "coord": {
            "lon": 44.091919,
            "lat": 40.157009
        }
    },
    {
        "id": 616620,
        "name": "Shahumyan",
        "country": "AM",
        "coord": {
            "lon": 44.545959,
            "lat": 40.774818
        }
    },
    {
        "id": 616632,
        "name": "Hayanist",
        "country": "AM",
        "coord": {
            "lon": 44.375229,
            "lat": 40.121658
        }
    },
    {
        "id": 616634,
        "name": "Haghartsin",
        "country": "AM",
        "coord": {
            "lon": 44.968472,
            "lat": 40.776138
        }
    },
    {
        "id": 616639,
        "name": "Gyulagarak",
        "country": "AM",
        "coord": {
            "lon": 44.471439,
            "lat": 40.967152
        }
    },
    {
        "id": 616645,
        "name": "Ghukasavan",
        "country": "AM",
        "coord": {
            "lon": 44.415939,
            "lat": 40.125851
        }
    },
    {
        "id": 616646,
        "name": "Geghamasar",
        "country": "AM",
        "coord": {
            "lon": 45.679241,
            "lat": 40.310909
        }
    },
    {
        "id": 616648,
        "name": "Gugark",
        "country": "AM",
        "coord": {
            "lon": 44.540249,
            "lat": 40.8046
        }
    },
    {
        "id": 616650,
        "name": "Tsiatsan",
        "country": "AM",
        "coord": {
            "lon": 44.266079,
            "lat": 40.186901
        }
    },
    {
        "id": 616657,
        "name": "Goght",
        "country": "AM",
        "coord": {
            "lon": 44.78093,
            "lat": 40.134949
        }
    },
    {
        "id": 616659,
        "name": "Gogaran",
        "country": "AM",
        "coord": {
            "lon": 44.19915,
            "lat": 40.892551
        }
    },
    {
        "id": 616669,
        "name": "Getashen",
        "country": "AM",
        "coord": {
            "lon": 43.942032,
            "lat": 40.044048
        }
    },
    {
        "id": 616682,
        "name": "Geghanist",
        "country": "AM",
        "coord": {
            "lon": 44.430538,
            "lat": 40.144932
        }
    },
    {
        "id": 616692,
        "name": "Geghamavan",
        "country": "AM",
        "coord": {
            "lon": 44.887901,
            "lat": 40.5634
        }
    },
    {
        "id": 616697,
        "name": "Garrni",
        "country": "AM",
        "coord": {
            "lon": 44.734421,
            "lat": 40.119308
        }
    },
    {
        "id": 616699,
        "name": "Gagarin",
        "country": "AM",
        "coord": {
            "lon": 44.869179,
            "lat": 40.54031
        }
    },
    {
        "id": 616701,
        "name": "Fantan",
        "country": "AM",
        "coord": {
            "lon": 44.684761,
            "lat": 40.394379
        }
    },
    {
        "id": 616702,
        "name": "Fioletovo",
        "country": "AM",
        "coord": {
            "lon": 44.71769,
            "lat": 40.722408
        }
    },
    {
        "id": 616716,
        "name": "Dzoragyugh",
        "country": "AM",
        "coord": {
            "lon": 45.183361,
            "lat": 40.169571
        }
    },
    {
        "id": 616719,
        "name": "Dzithankov",
        "country": "AM",
        "coord": {
            "lon": 43.821072,
            "lat": 40.508911
        }
    },
    {
        "id": 616722,
        "name": "Jrashen",
        "country": "AM",
        "coord": {
            "lon": 44.186642,
            "lat": 40.790279
        }
    },
    {
        "id": 616729,
        "name": "Jrahovit",
        "country": "AM",
        "coord": {
            "lon": 44.473721,
            "lat": 40.04533
        }
    },
    {
        "id": 616735,
        "name": "Janfida",
        "country": "AM",
        "coord": {
            "lon": 44.023338,
            "lat": 40.043911
        }
    },
    {
        "id": 616741,
        "name": "Dvin",
        "country": "AM",
        "coord": {
            "lon": 44.583759,
            "lat": 40.01984
        }
    },
    {
        "id": 616744,
        "name": "Drakhtik",
        "country": "AM",
        "coord": {
            "lon": 45.236698,
            "lat": 40.56496
        }
    },
    {
        "id": 616748,
        "name": "Doghs",
        "country": "AM",
        "coord": {
            "lon": 44.271709,
            "lat": 40.223728
        }
    },
    {
        "id": 616757,
        "name": "Ddmashen",
        "country": "AM",
        "coord": {
            "lon": 44.818508,
            "lat": 40.569721
        }
    },
    {
        "id": 616769,
        "name": "Dalarik",
        "country": "AM",
        "coord": {
            "lon": 43.875381,
            "lat": 40.226639
        }
    },
    {
        "id": 616773,
        "name": "Chochkan",
        "country": "AM",
        "coord": {
            "lon": 44.832169,
            "lat": 41.181179
        }
    },
    {
        "id": 616792,
        "name": "Buzhakan",
        "country": "AM",
        "coord": {
            "lon": 44.521049,
            "lat": 40.452942
        }
    },
    {
        "id": 616822,
        "name": "Byuravan",
        "country": "AM",
        "coord": {
            "lon": 44.51889,
            "lat": 40.016041
        }
    },
    {
        "id": 616823,
        "name": "Bambakashat",
        "country": "AM",
        "coord": {
            "lon": 44.016079,
            "lat": 40.109928
        }
    },
    {
        "id": 616824,
        "name": "Balahovit",
        "country": "AM",
        "coord": {
            "lon": 44.604259,
            "lat": 40.253731
        }
    },
    {
        "id": 616835,
        "name": "Azatan",
        "country": "AM",
        "coord": {
            "lon": 43.827271,
            "lat": 40.719589
        }
    },
    {
        "id": 616844,
        "name": "Haykavan",
        "country": "AM",
        "coord": {
            "lon": 43.75172,
            "lat": 40.80312
        }
    },
    {
        "id": 616849,
        "name": "Aygestan",
        "country": "AM",
        "coord": {
            "lon": 44.559052,
            "lat": 40.002579
        }
    },
    {
        "id": 616850,
        "name": "Aygeshat",
        "country": "AM",
        "coord": {
            "lon": 44.286919,
            "lat": 40.23571
        }
    },
    {
        "id": 616851,
        "name": "Aygeshat",
        "country": "AM",
        "coord": {
            "lon": 44.057968,
            "lat": 40.076408
        }
    },
    {
        "id": 616855,
        "name": "Aygehovit",
        "country": "AM",
        "coord": {
            "lon": 45.250332,
            "lat": 40.979511
        }
    },
    {
        "id": 616872,
        "name": "Artimet",
        "country": "AM",
        "coord": {
            "lon": 44.26543,
            "lat": 40.150799
        }
    },
    {
        "id": 616874,
        "name": "Astghadzor",
        "country": "AM",
        "coord": {
            "lon": 45.356979,
            "lat": 40.122478
        }
    },
    {
        "id": 616882,
        "name": "Arzakan",
        "country": "AM",
        "coord": {
            "lon": 44.60648,
            "lat": 40.44997
        }
    },
    {
        "id": 616888,
        "name": "Arteni",
        "country": "AM",
        "coord": {
            "lon": 43.762199,
            "lat": 40.298481
        }
    },
    {
        "id": 616898,
        "name": "Arshaluys",
        "country": "AM",
        "coord": {
            "lon": 44.213749,
            "lat": 40.1684
        }
    },
    {
        "id": 616902,
        "name": "Armavir",
        "country": "AM",
        "coord": {
            "lon": 44.053631,
            "lat": 40.086578
        }
    },
    {
        "id": 616912,
        "name": "Argel",
        "country": "AM",
        "coord": {
            "lon": 44.598282,
            "lat": 40.379429
        }
    },
    {
        "id": 616913,
        "name": "Argavand",
        "country": "AM",
        "coord": {
            "lon": 44.439159,
            "lat": 40.15876
        }
    },
    {
        "id": 616914,
        "name": "Argavand",
        "country": "AM",
        "coord": {
            "lon": 44.094742,
            "lat": 40.06097
        }
    },
    {
        "id": 616915,
        "name": "Arevshat",
        "country": "AM",
        "coord": {
            "lon": 44.044189,
            "lat": 40.65345
        }
    },
    {
        "id": 616916,
        "name": "Arevshat",
        "country": "AM",
        "coord": {
            "lon": 44.54179,
            "lat": 40.039631
        }
    },
    {
        "id": 616918,
        "name": "Arevik",
        "country": "AM",
        "coord": {
            "lon": 44.09127,
            "lat": 40.099449
        }
    },
    {
        "id": 616920,
        "name": "Arevashogh",
        "country": "AM",
        "coord": {
            "lon": 44.27438,
            "lat": 40.86039
        }
    },
    {
        "id": 616931,
        "name": "Archis",
        "country": "AM",
        "coord": {
            "lon": 44.87632,
            "lat": 41.163509
        }
    },
    {
        "id": 616933,
        "name": "Arazap",
        "country": "AM",
        "coord": {
            "lon": 44.147209,
            "lat": 40.04195
        }
    },
    {
        "id": 616935,
        "name": "Arrapi",
        "country": "AM",
        "coord": {
            "lon": 43.805828,
            "lat": 40.782761
        }
    },
    {
        "id": 616936,
        "name": "Aramus",
        "country": "AM",
        "coord": {
            "lon": 44.663509,
            "lat": 40.25095
        }
    },
    {
        "id": 616938,
        "name": "Araks",
        "country": "AM",
        "coord": {
            "lon": 44.30257,
            "lat": 40.054401
        }
    },
    {
        "id": 616944,
        "name": "Aragats",
        "country": "AM",
        "coord": {
            "lon": 44.352791,
            "lat": 40.488869
        }
    },
    {
        "id": 616982,
        "name": "Akunk",
        "country": "AM",
        "coord": {
            "lon": 45.725681,
            "lat": 40.158859
        }
    },
    {
        "id": 616989,
        "name": "Akhuryan",
        "country": "AM",
        "coord": {
            "lon": 43.900269,
            "lat": 40.780029
        }
    },
    {
        "id": 617002,
        "name": "Aghavnatun",
        "country": "AM",
        "coord": {
            "lon": 44.249741,
            "lat": 40.23238
        }
    },
    {
        "id": 617018,
        "name": "Agarak",
        "country": "AM",
        "coord": {
            "lon": 44.468449,
            "lat": 41.010719
        }
    },
    {
        "id": 617019,
        "name": "Agarak",
        "country": "AM",
        "coord": {
            "lon": 44.070332,
            "lat": 40.329319
        }
    },
    {
        "id": 793638,
        "name": "Vardablur",
        "country": "AM",
        "coord": {
            "lon": 44.508888,
            "lat": 40.970829
        }
    },
    {
        "id": 793672,
        "name": "Bartsrashen",
        "country": "AM",
        "coord": {
            "lon": 44.579578,
            "lat": 40.085331
        }
    },
    {
        "id": 793693,
        "name": "Nshavan",
        "country": "AM",
        "coord": {
            "lon": 44.52565,
            "lat": 40.02787
        }
    },
    {
        "id": 799614,
        "name": "Norabats",
        "country": "AM",
        "coord": {
            "lon": 44.429878,
            "lat": 40.105679
        }
    },
    {
        "id": 823723,
        "name": "Berdavan",
        "country": "AM",
        "coord": {
            "lon": 44.999668,
            "lat": 41.205029
        }
    },
    {
        "id": 823745,
        "name": "Shirakamut",
        "country": "AM",
        "coord": {
            "lon": 44.152779,
            "lat": 40.860561
        }
    },
    {
        "id": 823748,
        "name": "Azatamut",
        "country": "AM",
        "coord": {
            "lon": 45.207939,
            "lat": 40.987961
        }
    },
    {
        "id": 823749,
        "name": "Getahovit",
        "country": "AM",
        "coord": {
            "lon": 45.13924,
            "lat": 40.89782
        }
    },
    {
        "id": 823793,
        "name": "Nor Sasunik",
        "country": "AM",
        "coord": {
            "lon": 44.339569,
            "lat": 40.248692
        }
    },
    {
        "id": 823797,
        "name": "Kamaris",
        "country": "AM",
        "coord": {
            "lon": 44.694592,
            "lat": 40.23539
        }
    },
    {
        "id": 823800,
        "name": "Gandzak",
        "country": "AM",
        "coord": {
            "lon": 45.111389,
            "lat": 40.31472
        }
    },
    {
        "id": 823802,
        "name": "Myasnikyan",
        "country": "AM",
        "coord": {
            "lon": 43.906391,
            "lat": 40.177502
        }
    },
    {
        "id": 823807,
        "name": "Metsamor",
        "country": "AM",
        "coord": {
            "lon": 44.11998,
            "lat": 40.14481
        }
    },
    {
        "id": 823809,
        "name": "Baghramyan",
        "country": "AM",
        "coord": {
            "lon": 44.36832,
            "lat": 40.193439
        }
    },
    {
        "id": 823810,
        "name": "Musalerr",
        "country": "AM",
        "coord": {
            "lon": 44.378941,
            "lat": 40.153931
        }
    },
    {
        "id": 823811,
        "name": "Darakert",
        "country": "AM",
        "coord": {
            "lon": 44.413342,
            "lat": 40.105469
        }
    },
    {
        "id": 823812,
        "name": "Dashtavan",
        "country": "AM",
        "coord": {
            "lon": 44.390671,
            "lat": 40.101212
        }
    },
    {
        "id": 823813,
        "name": "Nizami",
        "country": "AM",
        "coord": {
            "lon": 44.40453,
            "lat": 40.091141
        }
    },
    {
        "id": 823818,
        "name": "Artsvanist",
        "country": "AM",
        "coord": {
            "lon": 45.50222,
            "lat": 40.154442
        }
    },
    {
        "id": 859714,
        "name": "Vardadzor",
        "country": "AM",
        "coord": {
            "lon": 45.19212,
            "lat": 40.187012
        }
    },
    {
        "id": 866081,
        "name": "Taronik",
        "country": "AM",
        "coord": {
            "lon": 44.19957,
            "lat": 40.133671
        }
    },
    {
        "id": 866089,
        "name": "Aknashen",
        "country": "AM",
        "coord": {
            "lon": 44.286041,
            "lat": 40.095509
        }
    },
    {
        "id": 866090,
        "name": "Haykashen",
        "country": "AM",
        "coord": {
            "lon": 44.306278,
            "lat": 40.073029
        }
    },
    {
        "id": 866091,
        "name": "Hovtashat",
        "country": "AM",
        "coord": {
            "lon": 44.338909,
            "lat": 40.103279
        }
    },
    {
        "id": 866092,
        "name": "Sayat-Nova",
        "country": "AM",
        "coord": {
            "lon": 44.39846,
            "lat": 40.07428
        }
    },
    {
        "id": 866093,
        "name": "Voskehat",
        "country": "AM",
        "coord": {
            "lon": 44.329182,
            "lat": 40.141579
        }
    },
    {
        "id": 866095,
        "name": "Griboyedov",
        "country": "AM",
        "coord": {
            "lon": 44.27169,
            "lat": 40.113071
        }
    },
    {
        "id": 866097,
        "name": "Amberd",
        "country": "AM",
        "coord": {
            "lon": 44.27227,
            "lat": 40.24192
        }
    },
    {
        "id": 866098,
        "name": "Aygek",
        "country": "AM",
        "coord": {
            "lon": 44.383331,
            "lat": 40.18861
        }
    },
    {
        "id": 866134,
        "name": "Hovtashen",
        "country": "AM",
        "coord": {
            "lon": 44.45129,
            "lat": 40.025101
        }
    },
    {
        "id": 866135,
        "name": "Dimitrov",
        "country": "AM",
        "coord": {
            "lon": 44.48999,
            "lat": 40.007519
        }
    },
    {
        "id": 828260,
        "name": "Armaviri Marz",
        "country": "AM",
        "coord": {
            "lon": 44,
            "lat": 40.116669
        }
    },
    {
        "id": 616417,
        "name": "Metsamor",
        "country": "AM",
        "coord": {
            "lon": 44.289619,
            "lat": 40.073021
        }
    },
    {
        "id": 174714,
        "name": "Vosketap",
        "country": "AM",
        "coord": {
            "lon": 44.64917,
            "lat": 39.881142
        }
    },
    {
        "id": 174982,
        "name": "Republic of Armenia",
        "country": "AM",
        "coord": {
            "lon": 45,
            "lat": 40
        }
    },
    {
        "id": 174979,
        "name": "Artashat",
        "country": "AM",
        "coord": {
            "lon": 44.544472,
            "lat": 39.961441
        }
    },
    {
        "id": 616051,
        "name": "Yerevan",
        "country": "AM",
        "coord": {
            "lon": 44.5,
            "lat": 40.183331
        }
    },
    {
        "id": 616052,
        "name": "Yerevan",
        "country": "AM",
        "coord": {
            "lon": 44.513611,
            "lat": 40.18111
        }
    },
    {
        "id": 828262,
        "name": "Kotayk\u2019i Marz",
        "country": "AM",
        "coord": {
            "lon": 44.75,
            "lat": 40.416672
        }
    },
    {
        "id": 617026,
        "name": "Abovyan",
        "country": "AM",
        "coord": {
            "lon": 44.62656,
            "lat": 40.26741
        }
    },
    {
        "id": 409313,
        "name": "Ararati Marz",
        "country": "AM",
        "coord": {
            "lon": 44.833328,
            "lat": 39.916672
        }
    },
    {
        "id": 828263,
        "name": "Lorru Marz",
        "country": "AM",
        "coord": {
            "lon": 44.5,
            "lat": 41
        }
    },
    {
        "id": 616530,
        "name": "Vanadzor",
        "country": "AM",
        "coord": {
            "lon": 44.4939,
            "lat": 40.804562
        }
    },
    {
        "id": 616629,
        "name": "Hrazdan",
        "country": "AM",
        "coord": {
            "lon": 44.766201,
            "lat": 40.497478
        }
    },
    {
        "id": 828264,
        "name": "Shiraki Marz",
        "country": "AM",
        "coord": {
            "lon": 43.833328,
            "lat": 40.75
        }
    },
    {
        "id": 616971,
        "name": "Amasia",
        "country": "AM",
        "coord": {
            "lon": 43.787201,
            "lat": 40.954418
        }
    },
    {
        "id": 823816,
        "name": "Masis",
        "country": "AM",
        "coord": {
            "lon": 44.485828,
            "lat": 40.013889
        }
    },
    {
        "id": 616724,
        "name": "Jrashen",
        "country": "AM",
        "coord": {
            "lon": 44.512589,
            "lat": 40.052761
        }
    },
    {
        "id": 409314,
        "name": "Syunik\u2019i Marz",
        "country": "AM",
        "coord": {
            "lon": 46.25,
            "lat": 39.333328
        }
    },
    {
        "id": 175007,
        "name": "Agarak",
        "country": "AM",
        "coord": {
            "lon": 46.544601,
            "lat": 39.206841
        }
    },
    {
        "id": 174875,
        "name": "Kapan",
        "country": "AM",
        "coord": {
            "lon": 46.405762,
            "lat": 39.207539
        }
    },
    {
        "id": 174895,
        "name": "Goris",
        "country": "AM",
        "coord": {
            "lon": 46.338161,
            "lat": 39.512878
        }
    },
    {
        "id": 616790,
        "name": "Byureghavan",
        "country": "AM",
        "coord": {
            "lon": 44.59396,
            "lat": 40.31485
        }
    },
    {
        "id": 828261,
        "name": "Geghark\u2019unik\u2019i Marz",
        "country": "AM",
        "coord": {
            "lon": 45.416672,
            "lat": 40.25
        }
    },
    {
        "id": 616117,
        "name": "Vahan",
        "country": "AM",
        "coord": {
            "lon": 45.39769,
            "lat": 40.575489
        }
    },
    {
        "id": 616599,
        "name": "Gavarr",
        "country": "AM",
        "coord": {
            "lon": 45.123859,
            "lat": 40.353981
        }
    },
    {
        "id": 828265,
        "name": "Tavushi Marz",
        "country": "AM",
        "coord": {
            "lon": 45.166672,
            "lat": 40.916672
        }
    },
    {
        "id": 616627,
        "name": "Ijevan",
        "country": "AM",
        "coord": {
            "lon": 45.14922,
            "lat": 40.878319
        }
    },
    {
        "id": 616635,
        "name": "Gyumri",
        "country": "AM",
        "coord": {
            "lon": 43.84528,
            "lat": 40.794201
        }
    },
    {
        "id": 174812,
        "name": "Nerk\u2019in Kamarlu",
        "country": "AM",
        "coord": {
            "lon": 44.549999,
            "lat": 39.950001
        }
    },
    {
        "id": 616350,
        "name": "Norashen",
        "country": "AM",
        "coord": {
            "lon": 44.58952,
            "lat": 39.999599
        }
    },
    {
        "id": 616786,
        "name": "Chambarak",
        "country": "AM",
        "coord": {
            "lon": 45.35498,
            "lat": 40.59655
        }
    },
    {
        "id": 174823,
        "name": "Meghri",
        "country": "AM",
        "coord": {
            "lon": 46.244579,
            "lat": 38.90292
        }
    },
    {
        "id": 616446,
        "name": "Maralik",
        "country": "AM",
        "coord": {
            "lon": 43.868622,
            "lat": 40.574532
        }
    },
    {
        "id": 828259,
        "name": "Aragatsotni Marz",
        "country": "AM",
        "coord": {
            "lon": 44.166672,
            "lat": 40.416672
        }
    },
    {
        "id": 616953,
        "name": "Aparan",
        "country": "AM",
        "coord": {
            "lon": 44.358898,
            "lat": 40.593231
        }
    },
    {
        "id": 616178,
        "name": "Tashir",
        "country": "AM",
        "coord": {
            "lon": 44.284618,
            "lat": 41.12072
        }
    },
    {
        "id": 616974,
        "name": "Alaverdi",
        "country": "AM",
        "coord": {
            "lon": 44.673161,
            "lat": 41.09766
        }
    },
    {
        "id": 616479,
        "name": "Spitak",
        "country": "AM",
        "coord": {
            "lon": 44.274349,
            "lat": 40.795319
        }
    },
    {
        "id": 616655,
        "name": "Gomadzor",
        "country": "AM",
        "coord": {
            "lon": 44.95343,
            "lat": 40.55724
        }
    },
    {
        "id": 616438,
        "name": "Martuni",
        "country": "AM",
        "coord": {
            "lon": 45.304501,
            "lat": 40.13768
        }
    },
    {
        "id": 866096,
        "name": "Echmiadzin",
        "country": "AM",
        "coord": {
            "lon": 44.33939,
            "lat": 40.16531
        }
    },
    {
        "id": 409315,
        "name": "Vayots\u2019 Dzori Marz",
        "country": "AM",
        "coord": {
            "lon": 45.416672,
            "lat": 39.75
        }
    },
    {
        "id": 174904,
        "name": "Gladzor",
        "country": "AM",
        "coord": {
            "lon": 45.35043,
            "lat": 39.781231
        }
    },
    {
        "id": 616742,
        "name": "Dsegh",
        "country": "AM",
        "coord": {
            "lon": 44.650028,
            "lat": 40.9617
        }
    },
    {
        "id": 793702,
        "name": "Verin Jrashen",
        "country": "AM",
        "coord": {
            "lon": 44.563568,
            "lat": 40.138569
        }
    },
    {
        "id": 616353,
        "name": "Nor Aresh",
        "country": "AM",
        "coord": {
            "lon": 44.52618,
            "lat": 40.14101
        }
    },
    {
        "id": 174710,
        "name": "Yeghegnadzor",
        "country": "AM",
        "coord": {
            "lon": 45.33239,
            "lat": 39.763889
        }
    },
    {
        "id": 616785,
        "name": "Ch\u2019arents\u2019avan",
        "country": "AM",
        "coord": {
            "lon": 44.648369,
            "lat": 40.411629
        }
    },
    {
        "id": 616837,
        "name": "Azat",
        "country": "AM",
        "coord": {
            "lon": 45.87257,
            "lat": 40.1772
        }
    },
    {
        "id": 174972,
        "name": "Hatsavan",
        "country": "AM",
        "coord": {
            "lon": 45.97047,
            "lat": 39.46405
        }
    },
    {
        "id": 616333,
        "name": "Noyemberyan",
        "country": "AM",
        "coord": {
            "lon": 44.999168,
            "lat": 41.17244
        }
    },
    {
        "id": 616752,
        "name": "Dilijan",
        "country": "AM",
        "coord": {
            "lon": 44.863621,
            "lat": 40.741032
        }
    },
    {
        "id": 174884,
        "name": "Jermuk",
        "country": "AM",
        "coord": {
            "lon": 45.672298,
            "lat": 39.841728
        }
    },
    {
        "id": 616525,
        "name": "Koghb",
        "country": "AM",
        "coord": {
            "lon": 44.976082,
            "lat": 41.181839
        }
    },
    {
        "id": 616802,
        "name": "Berd",
        "country": "AM",
        "coord": {
            "lon": 45.389851,
            "lat": 40.881489
        }
    },
    {
        "id": 616881,
        "name": "Arzni",
        "country": "AM",
        "coord": {
            "lon": 44.596642,
            "lat": 40.296261
        }
    },
    {
        "id": 616230,
        "name": "Shenavan",
        "country": "AM",
        "coord": {
            "lon": 44.382999,
            "lat": 40.48296
        }
    },
    {
        "id": 616712,
        "name": "Dzoraghbyur",
        "country": "AM",
        "coord": {
            "lon": 44.641499,
            "lat": 40.204121
        }
    },
    {
        "id": 616932,
        "name": "Arbat",
        "country": "AM",
        "coord": {
            "lon": 44.402,
            "lat": 40.138111
        }
    },
    {
        "id": 616917,
        "name": "Arevik",
        "country": "AM",
        "coord": {
            "lon": 43.902901,
            "lat": 40.74226
        }
    },
    {
        "id": 174991,
        "name": "Ararat",
        "country": "AM",
        "coord": {
            "lon": 44.704891,
            "lat": 39.831661
        }
    },
    {
        "id": 616062,
        "name": "Ejmiatsin",
        "country": "AM",
        "coord": {
            "lon": 44.294621,
            "lat": 40.165569
        }
    },
    {
        "id": 616250,
        "name": "Sevan",
        "country": "AM",
        "coord": {
            "lon": 44.948681,
            "lat": 40.548401
        }
    },
    {
        "id": 616435,
        "name": "Masis",
        "country": "AM",
        "coord": {
            "lon": 44.435909,
            "lat": 40.067619
        }
    },
    {
        "id": 616631,
        "name": "Armavir",
        "country": "AM",
        "coord": {
            "lon": 44.038151,
            "lat": 40.154461
        }
    },
    {
        "id": 616877,
        "name": "Ashtarak",
        "country": "AM",
        "coord": {
            "lon": 44.362041,
            "lat": 40.299099
        }
    }
]