[
    {
        "id": 7090954,
        "name": "Capital Governorate",
        "country": "BH",
        "coord": {
            "lon": 50.583328,
            "lat": 26.216669
        }
    },
    {
        "id": 290215,
        "name": "Jidd Hafs",
        "country": "BH",
        "coord": {
            "lon": 50.547779,
            "lat": 26.218611
        }
    },
    {
        "id": 290247,
        "name": "Madinat Hamad",
        "country": "BH",
        "coord": {
            "lon": 50.506939,
            "lat": 26.11528
        }
    },
    {
        "id": 290269,
        "name": "Dar Kulayb",
        "country": "BH",
        "coord": {
            "lon": 50.503891,
            "lat": 26.068609
        }
    },
    {
        "id": 290332,
        "name": "Al Muharraq",
        "country": "BH",
        "coord": {
            "lon": 50.611938,
            "lat": 26.257219
        }
    },
    {
        "id": 385038,
        "name": "Ar Rifa",
        "country": "BH",
        "coord": {
            "lon": 50.555,
            "lat": 26.129999
        }
    },
    {
        "id": 7090974,
        "name": "Northern Governorate",
        "country": "BH",
        "coord": {
            "lon": 50.466671,
            "lat": 26.15
        }
    },
    {
        "id": 290118,
        "name": "S\u0101r",
        "country": "BH",
        "coord": {
            "lon": 50.481941,
            "lat": 26.19417
        }
    },
    {
        "id": 290291,
        "name": "Kingdom of Bahrain",
        "country": "BH",
        "coord": {
            "lon": 50.5,
            "lat": 26
        }
    },
    {
        "id": 290187,
        "name": "Madinat Isa",
        "country": "BH",
        "coord": {
            "lon": 50.547779,
            "lat": 26.173611
        }
    },
    {
        "id": 290340,
        "name": "Manama",
        "country": "BH",
        "coord": {
            "lon": 50.583199,
            "lat": 26.215361
        }
    },
    {
        "id": 290082,
        "name": "Umm ash Sha\u2018\u016bm",
        "country": "BH",
        "coord": {
            "lon": 50.583328,
            "lat": 26.216669
        }
    },
    {
        "id": 7090973,
        "name": "Central Governorate",
        "country": "BH",
        "coord": {
            "lon": 50.566669,
            "lat": 26.16667
        }
    },
    {
        "id": 290104,
        "name": "Sitrah",
        "country": "BH",
        "coord": {
            "lon": 50.62056,
            "lat": 26.15472
        }
    },
    {
        "id": 290240,
        "name": "\u1e28illat \u2018Abd a\u015f \u015e\u0101li\u1e29",
        "country": "BH",
        "coord": {
            "lon": 50.51667,
            "lat": 26.22139
        }
    },
    {
        "id": 290333,
        "name": "Muharraq Governorate",
        "country": "BH",
        "coord": {
            "lon": 50.616669,
            "lat": 26.25
        }
    },
    {
        "id": 290123,
        "name": "Sam\u0101h\u012bj",
        "country": "BH",
        "coord": {
            "lon": 50.634998,
            "lat": 26.280001
        }
    },
    {
        "id": 290363,
        "name": "Al Hadd",
        "country": "BH",
        "coord": {
            "lon": 50.654171,
            "lat": 26.24556
        }
    }
]