[
    {
        "id": 3513252,
        "name": "Senkuria",
        "country": "BQ",
        "coord": {
            "lon": -68.26667,
            "lat": 12.15
        }
    },
    {
        "id": 7609816,
        "name": "Bonaire",
        "country": "BQ",
        "coord": {
            "lon": -68.25,
            "lat": 12.2
        }
    },
    {
        "id": 7626844,
        "name": "Bonaire, Saint Eustatius and Saba",
        "country": "BQ",
        "coord": {
            "lon": -68.294449,
            "lat": 12.21286
        }
    },
    {
        "id": 7610358,
        "name": "Saba",
        "country": "BQ",
        "coord": {
            "lon": -63.23333,
            "lat": 17.633329
        }
    },
    {
        "id": 3513173,
        "name": "The Bottom",
        "country": "BQ",
        "coord": {
            "lon": -63.249191,
            "lat": 17.6259
        }
    },
    {
        "id": 3513083,
        "name": "Windward Side",
        "country": "BQ",
        "coord": {
            "lon": -63.231361,
            "lat": 17.628639
        }
    },
    {
        "id": 3513228,
        "name": "Sint Joris",
        "country": "BQ",
        "coord": {
            "lon": -68.333328,
            "lat": 12.23333
        }
    },
    {
        "id": 3513760,
        "name": "Dorp Tera Kora",
        "country": "BQ",
        "coord": {
            "lon": -68.26667,
            "lat": 12.13333
        }
    },
    {
        "id": 3513146,
        "name": "Upper Hells Gate",
        "country": "BQ",
        "coord": {
            "lon": -63.22649,
            "lat": 17.643
        }
    },
    {
        "id": 7610359,
        "name": "Sint Eustatius",
        "country": "BQ",
        "coord": {
            "lon": -62.966671,
            "lat": 17.5
        }
    },
    {
        "id": 3513426,
        "name": "Oranjestad",
        "country": "BQ",
        "coord": {
            "lon": -62.983238,
            "lat": 17.482679
        }
    },
    {
        "id": 3513563,
        "name": "Kralendijk",
        "country": "BQ",
        "coord": {
            "lon": -68.26667,
            "lat": 12.15
        }
    },
    {
        "id": 3513765,
        "name": "Dorp Rincon",
        "country": "BQ",
        "coord": {
            "lon": -68.333328,
            "lat": 12.23333
        }
    },
    {
        "id": 3513768,
        "name": "Dorp Antriol",
        "country": "BQ",
        "coord": {
            "lon": -68.26667,
            "lat": 12.16667
        }
    }
]