[
    {
        "id": 3513132,
        "name": "Vianen",
        "country": "CW",
        "coord": {
            "lon": -68.916672,
            "lat": 12.1
        }
    },
    {
        "id": 3513405,
        "name": "Parera",
        "country": "CW",
        "coord": {
            "lon": -68.916672,
            "lat": 12.1
        }
    },
    {
        "id": 7626836,
        "name": "Land Cura\u00e7ao",
        "country": "CW",
        "coord": {
            "lon": -69,
            "lat": 12.16667
        }
    },
    {
        "id": 3513090,
        "name": "Willemstad",
        "country": "CW",
        "coord": {
            "lon": -68.93354,
            "lat": 12.1084
        }
    },
    {
        "id": 3513221,
        "name": "Sint Michiel Liber",
        "country": "CW",
        "coord": {
            "lon": -68.98333,
            "lat": 12.15
        }
    },
    {
        "id": 3513445,
        "name": "Newport",
        "country": "CW",
        "coord": {
            "lon": -68.816673,
            "lat": 12.05
        }
    },
    {
        "id": 3513761,
        "name": "Dorp Soto",
        "country": "CW",
        "coord": {
            "lon": -69.099998,
            "lat": 12.26667
        }
    },
    {
        "id": 3513936,
        "name": "Barber",
        "country": "CW",
        "coord": {
            "lon": -69.066673,
            "lat": 12.28333
        }
    }
]