[
    {
        "id": 2638976,
        "name": "Ruislip",
        "country": "GB",
        "coord": {
            "lon": -0.42341,
            "lat": 51.573441
        }
    },
    {
        "id": 7301040,
        "name": "Tonyrefail",
        "country": "GB",
        "coord": {
            "lon": -3.41503,
            "lat": 51.580238
        }
    },
    {
        "id": 2653753,
        "name": "Carmarthenshire",
        "country": "GB",
        "coord": {
            "lon": -4.16667,
            "lat": 51.833328
        }
    },
    {
        "id": 2650353,
        "name": "East Portlemouth",
        "country": "GB",
        "coord": {
            "lon": -3.75578,
            "lat": 50.232159
        }
    },
    {
        "id": 3333225,
        "name": "Dundee City",
        "country": "GB",
        "coord": {
            "lon": -2.91667,
            "lat": 56.466671
        }
    },
    {
        "id": 7290647,
        "name": "Nuneaton and Bedworth District",
        "country": "GB",
        "coord": {
            "lon": -1.47802,
            "lat": 52.500641
        }
    },
    {
        "id": 7291924,
        "name": "Rhyl",
        "country": "GB",
        "coord": {
            "lon": -3.47247,
            "lat": 53.31905
        }
    },
    {
        "id": 2649140,
        "name": "Foulridge",
        "country": "GB",
        "coord": {
            "lon": -2.16864,
            "lat": 53.87579
        }
    },
    {
        "id": 2647062,
        "name": "Hermitage",
        "country": "GB",
        "coord": {
            "lon": -1.26823,
            "lat": 51.455399
        }
    },
    {
        "id": 2648355,
        "name": "Golcar",
        "country": "GB",
        "coord": {
            "lon": -1.8557,
            "lat": 53.639919
        }
    },
    {
        "id": 2636001,
        "name": "Thornbury",
        "country": "GB",
        "coord": {
            "lon": -2.55,
            "lat": 52.23333
        }
    },
    {
        "id": 7300065,
        "name": "Yate",
        "country": "GB",
        "coord": {
            "lon": -2.40944,
            "lat": 51.54805
        }
    },
    {
        "id": 7292818,
        "name": "Caia Park",
        "country": "GB",
        "coord": {
            "lon": -2.97767,
            "lat": 53.045219
        }
    },
    {
        "id": 7290657,
        "name": "Worcester District",
        "country": "GB",
        "coord": {
            "lon": -2.20886,
            "lat": 52.196121
        }
    },
    {
        "id": 3333222,
        "name": "Borough of Wolverhampton",
        "country": "GB",
        "coord": {
            "lon": -2.11667,
            "lat": 52.583328
        }
    },
    {
        "id": 7299965,
        "name": "Winsford",
        "country": "GB",
        "coord": {
            "lon": -2.52331,
            "lat": 53.19191
        }
    },
    {
        "id": 2634551,
        "name": "Welwyn Hatfield",
        "country": "GB",
        "coord": {
            "lon": -0.21667,
            "lat": 51.75
        }
    },
    {
        "id": 3333211,
        "name": "Borough of Trafford",
        "country": "GB",
        "coord": {
            "lon": -2.33333,
            "lat": 53.416672
        }
    },
    {
        "id": 7290632,
        "name": "Tamworth District",
        "country": "GB",
        "coord": {
            "lon": -1.6829,
            "lat": 52.62273
        }
    },
    {
        "id": 7291961,
        "name": "Wroughton",
        "country": "GB",
        "coord": {
            "lon": -1.8056,
            "lat": 51.517849
        }
    },
    {
        "id": 7290571,
        "name": "Dartford District",
        "country": "GB",
        "coord": {
            "lon": 0.24851,
            "lat": 51.43388
        }
    },
    {
        "id": 7290673,
        "name": "South Derbyshire District",
        "country": "GB",
        "coord": {
            "lon": -1.53296,
            "lat": 52.821999
        }
    },
    {
        "id": 3333208,
        "name": "Borough of Tameside",
        "country": "GB",
        "coord": {
            "lon": -2.08333,
            "lat": 53.5
        }
    },
    {
        "id": 7291795,
        "name": "Mossley",
        "country": "GB",
        "coord": {
            "lon": -2.02418,
            "lat": 53.516338
        }
    },
    {
        "id": 7294483,
        "name": "Seaham",
        "country": "GB",
        "coord": {
            "lon": -1.34838,
            "lat": 54.8391
        }
    },
    {
        "id": 7295275,
        "name": "Sandown",
        "country": "GB",
        "coord": {
            "lon": -1.14195,
            "lat": 50.661251
        }
    },
    {
        "id": 7297739,
        "name": "Ryton",
        "country": "GB",
        "coord": {
            "lon": -2.35315,
            "lat": 52.624569
        }
    },
    {
        "id": 7290656,
        "name": "Redditch District",
        "country": "GB",
        "coord": {
            "lon": -1.94565,
            "lat": 52.279331
        }
    },
    {
        "id": 7294048,
        "name": "Prestatyn",
        "country": "GB",
        "coord": {
            "lon": -3.40514,
            "lat": 53.334641
        }
    },
    {
        "id": 7294693,
        "name": "Peterlee",
        "country": "GB",
        "coord": {
            "lon": -1.32905,
            "lat": 54.758461
        }
    },
    {
        "id": 7301708,
        "name": "Penarth",
        "country": "GB",
        "coord": {
            "lon": -3.18138,
            "lat": 51.43095
        }
    },
    {
        "id": 7292284,
        "name": "Oswestry",
        "country": "GB",
        "coord": {
            "lon": -3.05832,
            "lat": 52.857101
        }
    },
    {
        "id": 7294581,
        "name": "Northwich",
        "country": "GB",
        "coord": {
            "lon": -2.51575,
            "lat": 53.255798
        }
    },
    {
        "id": 2657122,
        "name": "Ards District",
        "country": "GB",
        "coord": {
            "lon": -5.58333,
            "lat": 54.5
        }
    },
    {
        "id": 2641519,
        "name": "Newtownards",
        "country": "GB",
        "coord": {
            "lon": -5.69092,
            "lat": 54.592361
        }
    },
    {
        "id": 7300025,
        "name": "Newquay",
        "country": "GB",
        "coord": {
            "lon": -5.07426,
            "lat": 50.424091
        }
    },
    {
        "id": 7298888,
        "name": "Nailsea",
        "country": "GB",
        "coord": {
            "lon": -2.77756,
            "lat": 51.424
        }
    },
    {
        "id": 7293862,
        "name": "Morley",
        "country": "GB",
        "coord": {
            "lon": -1.6034,
            "lat": 53.742901
        }
    },
    {
        "id": 7293814,
        "name": "Mirfield",
        "country": "GB",
        "coord": {
            "lon": -1.69404,
            "lat": 53.673901
        }
    },
    {
        "id": 7291605,
        "name": "Maesteg",
        "country": "GB",
        "coord": {
            "lon": -3.64713,
            "lat": 51.61528
        }
    },
    {
        "id": 7296039,
        "name": "Sutton",
        "country": "GB",
        "coord": {
            "lon": -2.0931,
            "lat": 53.227161
        }
    },
    {
        "id": 3333218,
        "name": "City of Westminster",
        "country": "GB",
        "coord": {
            "lon": -0.16667,
            "lat": 51.5
        }
    },
    {
        "id": 7295996,
        "name": "Sefton",
        "country": "GB",
        "coord": {
            "lon": -2.97287,
            "lat": 53.50441
        }
    },
    {
        "id": 3333227,
        "name": "East Dunbartonshire",
        "country": "GB",
        "coord": {
            "lon": -4.2,
            "lat": 55.933331
        }
    },
    {
        "id": 3333226,
        "name": "East Ayrshire",
        "country": "GB",
        "coord": {
            "lon": -4.25,
            "lat": 55.5
        }
    },
    {
        "id": 7296076,
        "name": "Keynsham",
        "country": "GB",
        "coord": {
            "lon": -2.49775,
            "lat": 51.41251
        }
    },
    {
        "id": 7301693,
        "name": "Kempston",
        "country": "GB",
        "coord": {
            "lon": -0.49955,
            "lat": 52.116791
        }
    },
    {
        "id": 7299757,
        "name": "Horwich",
        "country": "GB",
        "coord": {
            "lon": -2.52379,
            "lat": 53.603069
        }
    },
    {
        "id": 7290564,
        "name": "Dacorum District",
        "country": "GB",
        "coord": {
            "lon": -0.57377,
            "lat": 51.768509
        }
    },
    {
        "id": 7290687,
        "name": "Hastings District",
        "country": "GB",
        "coord": {
            "lon": 0.58145,
            "lat": 50.867279
        }
    },
    {
        "id": 7291323,
        "name": "Guisborough",
        "country": "GB",
        "coord": {
            "lon": -1.07738,
            "lat": 54.535629
        }
    },
    {
        "id": 7290595,
        "name": "Great Yarmouth District",
        "country": "GB",
        "coord": {
            "lon": 1.6469,
            "lat": 52.633961
        }
    },
    {
        "id": 7290630,
        "name": "South Staffordshire District",
        "country": "GB",
        "coord": {
            "lon": -2.15319,
            "lat": 52.604481
        }
    },
    {
        "id": 7296623,
        "name": "Goole",
        "country": "GB",
        "coord": {
            "lon": -0.87588,
            "lat": 53.70216
        }
    },
    {
        "id": 7290556,
        "name": "Fareham District",
        "country": "GB",
        "coord": {
            "lon": -1.21114,
            "lat": 50.8535
        }
    },
    {
        "id": 7290639,
        "name": "Epsom and Ewell District",
        "country": "GB",
        "coord": {
            "lon": -0.26017,
            "lat": 51.335732
        }
    },
    {
        "id": 7290641,
        "name": "Runnymede District",
        "country": "GB",
        "coord": {
            "lon": -0.53722,
            "lat": 51.394421
        }
    },
    {
        "id": 7300545,
        "name": "Ebbw Vale",
        "country": "GB",
        "coord": {
            "lon": -3.20482,
            "lat": 51.77298
        }
    },
    {
        "id": 7290615,
        "name": "Broxtowe District",
        "country": "GB",
        "coord": {
            "lon": -1.25781,
            "lat": 52.973049
        }
    },
    {
        "id": 7296192,
        "name": "Dunstable",
        "country": "GB",
        "coord": {
            "lon": -0.5173,
            "lat": 51.884651
        }
    },
    {
        "id": 3333142,
        "name": "City of Derby",
        "country": "GB",
        "coord": {
            "lon": -1.47217,
            "lat": 52.9207
        }
    },
    {
        "id": 7300542,
        "name": "Eccleshill",
        "country": "GB",
        "coord": {
            "lon": -2.4517,
            "lat": 53.706779
        }
    },
    {
        "id": 7291971,
        "name": "Cwmbran Central",
        "country": "GB",
        "coord": {
            "lon": -3.02699,
            "lat": 51.641171
        }
    },
    {
        "id": 7300082,
        "name": "Healeyfield",
        "country": "GB",
        "coord": {
            "lon": -1.8608,
            "lat": 54.830681
        }
    },
    {
        "id": 7290582,
        "name": "Ribble Valley District",
        "country": "GB",
        "coord": {
            "lon": -2.41624,
            "lat": 53.902439
        }
    },
    {
        "id": 7299112,
        "name": "Sodbury",
        "country": "GB",
        "coord": {
            "lon": -2.35653,
            "lat": 51.541489
        }
    },
    {
        "id": 7296198,
        "name": "Brymbo",
        "country": "GB",
        "coord": {
            "lon": -3.08351,
            "lat": 53.074551
        }
    },
    {
        "id": 7296060,
        "name": "Brixham",
        "country": "GB",
        "coord": {
            "lon": -3.51133,
            "lat": 50.390831
        }
    },
    {
        "id": 7296000,
        "name": "Bracknell",
        "country": "GB",
        "coord": {
            "lon": -0.75918,
            "lat": 51.406029
        }
    },
    {
        "id": 7291483,
        "name": "Blyth",
        "country": "GB",
        "coord": {
            "lon": -1.53835,
            "lat": 55.117748
        }
    },
    {
        "id": 7299866,
        "name": "Biggleswade",
        "country": "GB",
        "coord": {
            "lon": -0.24536,
            "lat": 52.078602
        }
    },
    {
        "id": 7298694,
        "name": "Berkhamsted",
        "country": "GB",
        "coord": {
            "lon": -0.5578,
            "lat": 51.755138
        }
    },
    {
        "id": 7296167,
        "name": "Bathampton",
        "country": "GB",
        "coord": {
            "lon": -2.32627,
            "lat": 51.3923
        }
    },
    {
        "id": 2641376,
        "name": "North Down District",
        "country": "GB",
        "coord": {
            "lon": -5.66667,
            "lat": 54.666672
        }
    },
    {
        "id": 7298620,
        "name": "Bangor",
        "country": "GB",
        "coord": {
            "lon": -4.13579,
            "lat": 53.222301
        }
    },
    {
        "id": 2656408,
        "name": "Banbridge District",
        "country": "GB",
        "coord": {
            "lon": -6.16667,
            "lat": 54.333328
        }
    },
    {
        "id": 7292321,
        "name": "Aberystwyth",
        "country": "GB",
        "coord": {
            "lon": -4.07708,
            "lat": 52.41227
        }
    },
    {
        "id": 6690583,
        "name": "Chalk Farm",
        "country": "GB",
        "coord": {
            "lon": -0.14987,
            "lat": 51.543129
        }
    },
    {
        "id": 7290681,
        "name": "East Dorset District",
        "country": "GB",
        "coord": {
            "lon": -1.976,
            "lat": 50.866901
        }
    },
    {
        "id": 2643743,
        "name": "London",
        "country": "GB",
        "coord": {
            "lon": -0.12574,
            "lat": 51.50853
        }
    },
    {
        "id": 2652249,
        "name": "Coulsdon",
        "country": "GB",
        "coord": {
            "lon": -0.14088,
            "lat": 51.320019
        }
    },
    {
        "id": 2650228,
        "name": "Edgware",
        "country": "GB",
        "coord": {
            "lon": -0.27539,
            "lat": 51.612801
        }
    },
    {
        "id": 2633975,
        "name": "Wickham",
        "country": "GB",
        "coord": {
            "lon": -1.18815,
            "lat": 50.899239
        }
    },
    {
        "id": 2640331,
        "name": "Pevensey",
        "country": "GB",
        "coord": {
            "lon": 0.33963,
            "lat": 50.81966
        }
    },
    {
        "id": 2641290,
        "name": "Northolt",
        "country": "GB",
        "coord": {
            "lon": -0.36778,
            "lat": 51.54855
        }
    },
    {
        "id": 2634341,
        "name": "City of Westminster",
        "country": "GB",
        "coord": {
            "lon": -0.11667,
            "lat": 51.5
        }
    },
    {
        "id": 2636147,
        "name": "Teddington",
        "country": "GB",
        "coord": {
            "lon": -0.33053,
            "lat": 51.422329
        }
    },
    {
        "id": 2637490,
        "name": "Southall",
        "country": "GB",
        "coord": {
            "lon": -0.3713,
            "lat": 51.508961
        }
    },
    {
        "id": 2637063,
        "name": "Stanmore",
        "country": "GB",
        "coord": {
            "lon": -0.31667,
            "lat": 51.616669
        }
    },
    {
        "id": 2646004,
        "name": "Isleworth",
        "country": "GB",
        "coord": {
            "lon": -0.34246,
            "lat": 51.475182
        }
    },
    {
        "id": 2640275,
        "name": "Pinner",
        "country": "GB",
        "coord": {
            "lon": -0.38216,
            "lat": 51.593842
        }
    },
    {
        "id": 2647972,
        "name": "Greenford",
        "country": "GB",
        "coord": {
            "lon": -0.35508,
            "lat": 51.52866
        }
    },
    {
        "id": 2647550,
        "name": "Hampton",
        "country": "GB",
        "coord": {
            "lon": -0.36684,
            "lat": 51.421051
        }
    },
    {
        "id": 2633655,
        "name": "Woodford Green",
        "country": "GB",
        "coord": {
            "lon": 0.02329,
            "lat": 51.609379
        }
    },
    {
        "id": 2653229,
        "name": "Chessington",
        "country": "GB",
        "coord": {
            "lon": -0.30427,
            "lat": 51.3624
        }
    },
    {
        "id": 2637347,
        "name": "South Petherton",
        "country": "GB",
        "coord": {
            "lon": -2.80708,
            "lat": 50.948292
        }
    },
    {
        "id": 2647297,
        "name": "Hawick",
        "country": "GB",
        "coord": {
            "lon": -2.78666,
            "lat": 55.422729
        }
    },
    {
        "id": 2648299,
        "name": "Gorleston-on-Sea",
        "country": "GB",
        "coord": {
            "lon": 1.73069,
            "lat": 52.573009
        }
    },
    {
        "id": 2648928,
        "name": "Galashiels",
        "country": "GB",
        "coord": {
            "lon": -2.80695,
            "lat": 55.614578
        }
    },
    {
        "id": 2654578,
        "name": "Bromyard",
        "country": "GB",
        "coord": {
            "lon": -2.50875,
            "lat": 52.190189
        }
    },
    {
        "id": 3345093,
        "name": "Looe",
        "country": "GB",
        "coord": {
            "lon": -4.45418,
            "lat": 50.35778
        }
    },
    {
        "id": 2655603,
        "name": "Birmingham",
        "country": "GB",
        "coord": {
            "lon": -1.89983,
            "lat": 52.481419
        }
    },
    {
        "id": 2651049,
        "name": "Dover District",
        "country": "GB",
        "coord": {
            "lon": 1.23333,
            "lat": 51.150002
        }
    },
    {
        "id": 7290558,
        "name": "Hart District",
        "country": "GB",
        "coord": {
            "lon": -0.8811,
            "lat": 51.275639
        }
    },
    {
        "id": 7287910,
        "name": "Fetcham",
        "country": "GB",
        "coord": {
            "lon": -0.35582,
            "lat": 51.288792
        }
    },
    {
        "id": 2648110,
        "name": "Greater London",
        "country": "GB",
        "coord": {
            "lon": -0.16667,
            "lat": 51.5
        }
    },
    {
        "id": 7292856,
        "name": "Sandhurst",
        "country": "GB",
        "coord": {
            "lon": -0.78636,
            "lat": 51.350281
        }
    },
    {
        "id": 2642233,
        "name": "Morden",
        "country": "GB",
        "coord": {
            "lon": -0.19837,
            "lat": 51.39822
        }
    },
    {
        "id": 3333121,
        "name": "Barnet",
        "country": "GB",
        "coord": {
            "lon": -0.21423,
            "lat": 51.65736
        }
    },
    {
        "id": 2634895,
        "name": "Wales",
        "country": "GB",
        "coord": {
            "lon": -3.5,
            "lat": 52.5
        }
    },
    {
        "id": 2653256,
        "name": "Chepstow",
        "country": "GB",
        "coord": {
            "lon": -2.67683,
            "lat": 51.640869
        }
    },
    {
        "id": 2648152,
        "name": "Great Braxted",
        "country": "GB",
        "coord": {
            "lon": 0.69901,
            "lat": 51.795292
        }
    },
    {
        "id": 2641918,
        "name": "Nacton",
        "country": "GB",
        "coord": {
            "lon": 1.23589,
            "lat": 52.01825
        }
    },
    {
        "id": 2635527,
        "name": "Tre-groes",
        "country": "GB",
        "coord": {
            "lon": -4.31667,
            "lat": 52.066669
        }
    },
    {
        "id": 7290655,
        "name": "Malvern Hills District",
        "country": "GB",
        "coord": {
            "lon": -2.40461,
            "lat": 52.16713
        }
    },
    {
        "id": 2649217,
        "name": "Forest Heath District",
        "country": "GB",
        "coord": {
            "lon": 0.56667,
            "lat": 52.333328
        }
    },
    {
        "id": 2647687,
        "name": "Haddenham",
        "country": "GB",
        "coord": {
            "lon": 0.14827,
            "lat": 52.357891
        }
    },
    {
        "id": 7290602,
        "name": "East Northamptonshire District",
        "country": "GB",
        "coord": {
            "lon": -0.50664,
            "lat": 52.448132
        }
    },
    {
        "id": 3333180,
        "name": "City of Peterborough",
        "country": "GB",
        "coord": {
            "lon": -0.25,
            "lat": 52.583328
        }
    },
    {
        "id": 2637958,
        "name": "Shipley",
        "country": "GB",
        "coord": {
            "lon": -1.76667,
            "lat": 53.833328
        }
    },
    {
        "id": 2647282,
        "name": "Hawkwell",
        "country": "GB",
        "coord": {
            "lon": 0.67347,
            "lat": 51.591949
        }
    },
    {
        "id": 2644993,
        "name": "Lambourn",
        "country": "GB",
        "coord": {
            "lon": -1.53105,
            "lat": 51.508049
        }
    },
    {
        "id": 2644577,
        "name": "Leven",
        "country": "GB",
        "coord": {
            "lon": -3,
            "lat": 56.200001
        }
    },
    {
        "id": 7290543,
        "name": "Epping Forest District",
        "country": "GB",
        "coord": {
            "lon": 0.16555,
            "lat": 51.712818
        }
    },
    {
        "id": 7290612,
        "name": "Selby District",
        "country": "GB",
        "coord": {
            "lon": -1.12659,
            "lat": 53.778111
        }
    },
    {
        "id": 2648300,
        "name": "Goring-by-Sea",
        "country": "GB",
        "coord": {
            "lon": -0.42194,
            "lat": 50.812389
        }
    },
    {
        "id": 2634548,
        "name": "Wembury",
        "country": "GB",
        "coord": {
            "lon": -4.07529,
            "lat": 50.32272
        }
    },
    {
        "id": 7297945,
        "name": "Lea",
        "country": "GB",
        "coord": {
            "lon": -2.49776,
            "lat": 51.8932
        }
    },
    {
        "id": 2644766,
        "name": "Lea",
        "country": "GB",
        "coord": {
            "lon": -2.5,
            "lat": 51.900002
        }
    },
    {
        "id": 3333209,
        "name": "District of Telford and Wrekin",
        "country": "GB",
        "coord": {
            "lon": -2.5,
            "lat": 52.75
        }
    },
    {
        "id": 7291968,
        "name": "Wellington",
        "country": "GB",
        "coord": {
            "lon": -2.51371,
            "lat": 52.70639
        }
    },
    {
        "id": 2634573,
        "name": "Wellington",
        "country": "GB",
        "coord": {
            "lon": -2.51667,
            "lat": 52.700001
        }
    },
    {
        "id": 7290609,
        "name": "Richmondshire District",
        "country": "GB",
        "coord": {
            "lon": -1.91612,
            "lat": 54.357288
        }
    },
    {
        "id": 3333192,
        "name": "Borough of Sefton",
        "country": "GB",
        "coord": {
            "lon": -3,
            "lat": 53.5
        }
    },
    {
        "id": 7301053,
        "name": "Maghull",
        "country": "GB",
        "coord": {
            "lon": -2.93941,
            "lat": 53.511101
        }
    },
    {
        "id": 2643198,
        "name": "Maghull",
        "country": "GB",
        "coord": {
            "lon": -2.94117,
            "lat": 53.51619
        }
    },
    {
        "id": 2652975,
        "name": "Clackmannanshire",
        "country": "GB",
        "coord": {
            "lon": -3.75,
            "lat": 56.166672
        }
    },
    {
        "id": 2653939,
        "name": "Cambus",
        "country": "GB",
        "coord": {
            "lon": -3.84426,
            "lat": 56.124401
        }
    },
    {
        "id": 2647048,
        "name": "Herstmonceux",
        "country": "GB",
        "coord": {
            "lon": 0.3229,
            "lat": 50.88958
        }
    },
    {
        "id": 2641545,
        "name": "Newton Longville",
        "country": "GB",
        "coord": {
            "lon": -0.76595,
            "lat": 51.976002
        }
    },
    {
        "id": 2644973,
        "name": "Lancaster",
        "country": "GB",
        "coord": {
            "lon": -2.76667,
            "lat": 54.116669
        }
    },
    {
        "id": 7290555,
        "name": "Eastleigh District",
        "country": "GB",
        "coord": {
            "lon": -1.32746,
            "lat": 50.92263
        }
    },
    {
        "id": 2641254,
        "name": "North Stoneham",
        "country": "GB",
        "coord": {
            "lon": -1.37044,
            "lat": 50.953209
        }
    },
    {
        "id": 2648857,
        "name": "Garrabost",
        "country": "GB",
        "coord": {
            "lon": -6.21667,
            "lat": 58.216671
        }
    },
    {
        "id": 7294063,
        "name": "Llanelli",
        "country": "GB",
        "coord": {
            "lon": -4.16522,
            "lat": 51.670731
        }
    },
    {
        "id": 2635437,
        "name": "Trostre",
        "country": "GB",
        "coord": {
            "lon": -4.13667,
            "lat": 51.67598
        }
    },
    {
        "id": 2652297,
        "name": "Coseley",
        "country": "GB",
        "coord": {
            "lon": -2.0855,
            "lat": 52.544781
        }
    },
    {
        "id": 3333154,
        "name": "Hillingdon",
        "country": "GB",
        "coord": {
            "lon": -0.45,
            "lat": 51.5
        }
    },
    {
        "id": 7290537,
        "name": "Cheshire West and Chester",
        "country": "GB",
        "coord": {
            "lon": -2.73595,
            "lat": 53.163521
        }
    },
    {
        "id": 7294598,
        "name": "Great Boughton",
        "country": "GB",
        "coord": {
            "lon": -2.85604,
            "lat": 53.189949
        }
    },
    {
        "id": 6693608,
        "name": "Hoole",
        "country": "GB",
        "coord": {
            "lon": -2.87689,
            "lat": 53.199799
        }
    },
    {
        "id": 2648372,
        "name": "Godalming",
        "country": "GB",
        "coord": {
            "lon": -0.61725,
            "lat": 51.18462
        }
    },
    {
        "id": 7296006,
        "name": "Filton",
        "country": "GB",
        "coord": {
            "lon": -2.5739,
            "lat": 51.511299
        }
    },
    {
        "id": 2653328,
        "name": "Charlton",
        "country": "GB",
        "coord": {
            "lon": -2.6,
            "lat": 51.51667
        }
    },
    {
        "id": 8063665,
        "name": "Branksome",
        "country": "GB",
        "coord": {
            "lon": -1.92344,
            "lat": 50.732101
        }
    },
    {
        "id": 7300649,
        "name": "Llanllyfni",
        "country": "GB",
        "coord": {
            "lon": -4.24085,
            "lat": 53.039379
        }
    },
    {
        "id": 2644287,
        "name": "Little Milton",
        "country": "GB",
        "coord": {
            "lon": -1.10495,
            "lat": 51.702801
        }
    },
    {
        "id": 7290613,
        "name": "Ashfield District",
        "country": "GB",
        "coord": {
            "lon": -1.25288,
            "lat": 53.089439
        }
    },
    {
        "id": 2638215,
        "name": "Selston",
        "country": "GB",
        "coord": {
            "lon": -1.30179,
            "lat": 53.07193
        }
    },
    {
        "id": 2637358,
        "name": "South Normanton",
        "country": "GB",
        "coord": {
            "lon": -1.34262,
            "lat": 53.106369
        }
    },
    {
        "id": 7296240,
        "name": "Llangollen Rural",
        "country": "GB",
        "coord": {
            "lon": -3.10033,
            "lat": 52.971062
        }
    },
    {
        "id": 3333124,
        "name": "Bexley",
        "country": "GB",
        "coord": {
            "lon": 0.13333,
            "lat": 51.416672
        }
    },
    {
        "id": 2655774,
        "name": "Bexleyheath",
        "country": "GB",
        "coord": {
            "lon": 0.13943,
            "lat": 51.46291
        }
    },
    {
        "id": 7292723,
        "name": "Tilehurst",
        "country": "GB",
        "coord": {
            "lon": -1.04711,
            "lat": 51.45789
        }
    },
    {
        "id": 7291120,
        "name": "Falmouth",
        "country": "GB",
        "coord": {
            "lon": -5.07133,
            "lat": 50.14505
        }
    },
    {
        "id": 2649715,
        "name": "Falmouth",
        "country": "GB",
        "coord": {
            "lon": -5.07113,
            "lat": 50.154411
        }
    },
    {
        "id": 2654981,
        "name": "Bradley in the Moors",
        "country": "GB",
        "coord": {
            "lon": -1.91204,
            "lat": 52.968681
        }
    },
    {
        "id": 2656060,
        "name": "Beckford",
        "country": "GB",
        "coord": {
            "lon": -2.03478,
            "lat": 52.020531
        }
    },
    {
        "id": 3345130,
        "name": "Carew Newton",
        "country": "GB",
        "coord": {
            "lon": -4.82917,
            "lat": 51.705559
        }
    },
    {
        "id": 2635750,
        "name": "Todber",
        "country": "GB",
        "coord": {
            "lon": -2.28928,
            "lat": 50.980839
        }
    },
    {
        "id": 2639524,
        "name": "Redruth",
        "country": "GB",
        "coord": {
            "lon": -5.22434,
            "lat": 50.23315
        }
    },
    {
        "id": 2647488,
        "name": "Harecastle",
        "country": "GB",
        "coord": {
            "lon": -2.25,
            "lat": 53.066669
        }
    },
    {
        "id": 3333125,
        "name": "City and Borough of Birmingham",
        "country": "GB",
        "coord": {
            "lon": -1.89823,
            "lat": 52.48048
        }
    },
    {
        "id": 3333139,
        "name": "City and Borough of Coventry",
        "country": "GB",
        "coord": {
            "lon": -1.5,
            "lat": 52.416672
        }
    },
    {
        "id": 2649259,
        "name": "Foleshill",
        "country": "GB",
        "coord": {
            "lon": -1.48303,
            "lat": 52.439301
        }
    },
    {
        "id": 7290621,
        "name": "Oxford District",
        "country": "GB",
        "coord": {
            "lon": -1.23854,
            "lat": 51.753151
        }
    },
    {
        "id": 7297375,
        "name": "The Gorge",
        "country": "GB",
        "coord": {
            "lon": -2.47239,
            "lat": 52.635288
        }
    },
    {
        "id": 2652708,
        "name": "Coalbrookdale",
        "country": "GB",
        "coord": {
            "lon": -2.49174,
            "lat": 52.63821
        }
    },
    {
        "id": 2647601,
        "name": "Borough of Halton",
        "country": "GB",
        "coord": {
            "lon": -2.75,
            "lat": 53.333328
        }
    },
    {
        "id": 2634311,
        "name": "Weston Point",
        "country": "GB",
        "coord": {
            "lon": -2.75649,
            "lat": 53.32642
        }
    },
    {
        "id": 2650236,
        "name": "Edgbaston",
        "country": "GB",
        "coord": {
            "lon": -1.92115,
            "lat": 52.462299
        }
    },
    {
        "id": 7291997,
        "name": "Newbury",
        "country": "GB",
        "coord": {
            "lon": -1.32067,
            "lat": 51.390831
        }
    },
    {
        "id": 7290590,
        "name": "Lincoln District",
        "country": "GB",
        "coord": {
            "lon": -0.55664,
            "lat": 53.220119
        }
    },
    {
        "id": 2635586,
        "name": "Town Moor",
        "country": "GB",
        "coord": {
            "lon": -1.61667,
            "lat": 54.98333
        }
    },
    {
        "id": 2656196,
        "name": "Basford",
        "country": "GB",
        "coord": {
            "lon": -1.18333,
            "lat": 52.966671
        }
    },
    {
        "id": 2646253,
        "name": "Ince-in-Makerfield",
        "country": "GB",
        "coord": {
            "lon": -2.61667,
            "lat": 53.533329
        }
    },
    {
        "id": 2647516,
        "name": "Hanwell",
        "country": "GB",
        "coord": {
            "lon": -0.33517,
            "lat": 51.518089
        }
    },
    {
        "id": 2644100,
        "name": "Llanelli",
        "country": "GB",
        "coord": {
            "lon": -4.16191,
            "lat": 51.68195
        }
    },
    {
        "id": 2657480,
        "name": "Allesley",
        "country": "GB",
        "coord": {
            "lon": -1.57157,
            "lat": 52.426048
        }
    },
    {
        "id": 3333187,
        "name": "Richmond upon Thames",
        "country": "GB",
        "coord": {
            "lon": -0.33333,
            "lat": 51.416672
        }
    },
    {
        "id": 2655984,
        "name": "Belfast",
        "country": "GB",
        "coord": {
            "lon": -5.93333,
            "lat": 54.583328
        }
    },
    {
        "id": 3333229,
        "name": "City of Edinburgh",
        "country": "GB",
        "coord": {
            "lon": -3.19333,
            "lat": 55.94973
        }
    },
    {
        "id": 3333136,
        "name": "Borough of Bury",
        "country": "GB",
        "coord": {
            "lon": -2.33333,
            "lat": 53.583328
        }
    },
    {
        "id": 2641557,
        "name": "Newton Abbot",
        "country": "GB",
        "coord": {
            "lon": -3.61186,
            "lat": 50.52858
        }
    },
    {
        "id": 3333161,
        "name": "Borough of Kirklees",
        "country": "GB",
        "coord": {
            "lon": -1.75,
            "lat": 53.583328
        }
    },
    {
        "id": 3333137,
        "name": "Borough of Calderdale",
        "country": "GB",
        "coord": {
            "lon": -2,
            "lat": 53.700001
        }
    },
    {
        "id": 2635028,
        "name": "Vale of Glamorgan",
        "country": "GB",
        "coord": {
            "lon": -3.41667,
            "lat": 51.416672
        }
    },
    {
        "id": 2633462,
        "name": "Wycombe",
        "country": "GB",
        "coord": {
            "lon": -0.9,
            "lat": 51.583328
        }
    },
    {
        "id": 2652586,
        "name": "Coleraine",
        "country": "GB",
        "coord": {
            "lon": -6.66667,
            "lat": 55.133331
        }
    },
    {
        "id": 2634869,
        "name": "Wallingford",
        "country": "GB",
        "coord": {
            "lon": -1.1248,
            "lat": 51.599819
        }
    },
    {
        "id": 2636066,
        "name": "Thame",
        "country": "GB",
        "coord": {
            "lon": -0.97624,
            "lat": 51.748402
        }
    },
    {
        "id": 2654092,
        "name": "Caernarfon",
        "country": "GB",
        "coord": {
            "lon": -4.27016,
            "lat": 53.141258
        }
    },
    {
        "id": 2645093,
        "name": "Knutsford",
        "country": "GB",
        "coord": {
            "lon": -2.37482,
            "lat": 53.302891
        }
    },
    {
        "id": 7295999,
        "name": "Carmarthen",
        "country": "GB",
        "coord": {
            "lon": -4.33155,
            "lat": 51.856049
        }
    },
    {
        "id": 2653755,
        "name": "Carmarthen",
        "country": "GB",
        "coord": {
            "lon": -4.30535,
            "lat": 51.855518
        }
    },
    {
        "id": 7292911,
        "name": "Huntingdon",
        "country": "GB",
        "coord": {
            "lon": -0.18646,
            "lat": 52.34251
        }
    },
    {
        "id": 2657060,
        "name": "Armagh",
        "country": "GB",
        "coord": {
            "lon": -6.66667,
            "lat": 54.349998
        }
    },
    {
        "id": 7291791,
        "name": "Northwood",
        "country": "GB",
        "coord": {
            "lon": -1.31093,
            "lat": 50.739151
        }
    },
    {
        "id": 2641217,
        "name": "Northwood",
        "country": "GB",
        "coord": {
            "lon": -1.31192,
            "lat": 50.74102
        }
    },
    {
        "id": 7292855,
        "name": "Crowthorne",
        "country": "GB",
        "coord": {
            "lon": -0.77353,
            "lat": 51.375
        }
    },
    {
        "id": 7292770,
        "name": "Finchampstead",
        "country": "GB",
        "coord": {
            "lon": -0.866,
            "lat": 51.371929
        }
    },
    {
        "id": 2649445,
        "name": "Finchampstead",
        "country": "GB",
        "coord": {
            "lon": -0.85728,
            "lat": 51.361488
        }
    },
    {
        "id": 7298372,
        "name": "Truro",
        "country": "GB",
        "coord": {
            "lon": -5.05831,
            "lat": 50.263691
        }
    },
    {
        "id": 2635412,
        "name": "Truro",
        "country": "GB",
        "coord": {
            "lon": -5.05436,
            "lat": 50.265259
        }
    },
    {
        "id": 2656913,
        "name": "Ash Vale",
        "country": "GB",
        "coord": {
            "lon": -0.72115,
            "lat": 51.26997
        }
    },
    {
        "id": 2655049,
        "name": "Bowness-on-Windermere",
        "country": "GB",
        "coord": {
            "lon": -2.91859,
            "lat": 54.363312
        }
    },
    {
        "id": 3333239,
        "name": "Bridgend county borough",
        "country": "GB",
        "coord": {
            "lon": -3.58333,
            "lat": 51.549999
        }
    },
    {
        "id": 7292974,
        "name": "Leighton-Linslade",
        "country": "GB",
        "coord": {
            "lon": -0.66606,
            "lat": 51.917469
        }
    },
    {
        "id": 7290663,
        "name": "Barrow-in-Furness District",
        "country": "GB",
        "coord": {
            "lon": -3.22326,
            "lat": 54.128849
        }
    },
    {
        "id": 3333152,
        "name": "Borough of Hartlepool",
        "country": "GB",
        "coord": {
            "lon": -1.25,
            "lat": 54.666672
        }
    },
    {
        "id": 3333236,
        "name": "South Lanarkshire",
        "country": "GB",
        "coord": {
            "lon": -3.83333,
            "lat": 55.583328
        }
    },
    {
        "id": 2647570,
        "name": "Hamilton",
        "country": "GB",
        "coord": {
            "lon": -4.03333,
            "lat": 55.76667
        }
    },
    {
        "id": 7290586,
        "name": "Hinckley and Bosworth District",
        "country": "GB",
        "coord": {
            "lon": -1.38402,
            "lat": 52.60778
        }
    },
    {
        "id": 2656039,
        "name": "Bedlington",
        "country": "GB",
        "coord": {
            "lon": -1.59319,
            "lat": 55.130611
        }
    },
    {
        "id": 2636518,
        "name": "Sunninghill",
        "country": "GB",
        "coord": {
            "lon": -0.65557,
            "lat": 51.401348
        }
    },
    {
        "id": 2651386,
        "name": "Denbigh",
        "country": "GB",
        "coord": {
            "lon": -3.41667,
            "lat": 53.183331
        }
    },
    {
        "id": 7294638,
        "name": "Penzance",
        "country": "GB",
        "coord": {
            "lon": -5.54554,
            "lat": 50.105862
        }
    },
    {
        "id": 2640377,
        "name": "Penzance",
        "country": "GB",
        "coord": {
            "lon": -5.53715,
            "lat": 50.11861
        }
    },
    {
        "id": 7290557,
        "name": "Gosport District",
        "country": "GB",
        "coord": {
            "lon": -1.16165,
            "lat": 50.806198
        }
    },
    {
        "id": 3333232,
        "name": "North Ayrshire",
        "country": "GB",
        "coord": {
            "lon": -4.89647,
            "lat": 55.696548
        }
    },
    {
        "id": 2654604,
        "name": "Brodick",
        "country": "GB",
        "coord": {
            "lon": -5.14717,
            "lat": 55.57539
        }
    },
    {
        "id": 7295818,
        "name": "Meltham",
        "country": "GB",
        "coord": {
            "lon": -1.86003,
            "lat": 53.589859
        }
    },
    {
        "id": 2640968,
        "name": "Omagh District",
        "country": "GB",
        "coord": {
            "lon": -7.25,
            "lat": 54.583328
        }
    },
    {
        "id": 2640967,
        "name": "Omagh",
        "country": "GB",
        "coord": {
            "lon": -7.3,
            "lat": 54.599998
        }
    },
    {
        "id": 7292970,
        "name": "Glyncorrwg",
        "country": "GB",
        "coord": {
            "lon": -3.64345,
            "lat": 51.673939
        }
    },
    {
        "id": 2657807,
        "name": "Abergwynfi",
        "country": "GB",
        "coord": {
            "lon": -3.6026,
            "lat": 51.653549
        }
    },
    {
        "id": 7292972,
        "name": "Pelenna",
        "country": "GB",
        "coord": {
            "lon": -3.72255,
            "lat": 51.656151
        }
    },
    {
        "id": 2640118,
        "name": "Pontrhydyfen",
        "country": "GB",
        "coord": {
            "lon": -3.74469,
            "lat": 51.63435
        }
    },
    {
        "id": 2642330,
        "name": "Monkseaton",
        "country": "GB",
        "coord": {
            "lon": -1.4659,
            "lat": 55.042339
        }
    },
    {
        "id": 7296375,
        "name": "Ystalyfera",
        "country": "GB",
        "coord": {
            "lon": -3.80508,
            "lat": 51.758041
        }
    },
    {
        "id": 2633337,
        "name": "Ystalyfera",
        "country": "GB",
        "coord": {
            "lon": -3.78082,
            "lat": 51.767159
        }
    },
    {
        "id": 2650941,
        "name": "Drumcree",
        "country": "GB",
        "coord": {
            "lon": -6.46667,
            "lat": 54.433331
        }
    },
    {
        "id": 7296308,
        "name": "Milford Haven",
        "country": "GB",
        "coord": {
            "lon": -5.03444,
            "lat": 51.720711
        }
    },
    {
        "id": 2642534,
        "name": "Milford Haven",
        "country": "GB",
        "coord": {
            "lon": -5.0341,
            "lat": 51.71278
        }
    },
    {
        "id": 3333212,
        "name": "City and Borough of Wakefield",
        "country": "GB",
        "coord": {
            "lon": -1.49895,
            "lat": 53.680851
        }
    },
    {
        "id": 2638035,
        "name": "Shepton Mallet",
        "country": "GB",
        "coord": {
            "lon": -2.54722,
            "lat": 51.18972
        }
    },
    {
        "id": 7300410,
        "name": "Thorne",
        "country": "GB",
        "coord": {
            "lon": -0.92887,
            "lat": 53.621189
        }
    },
    {
        "id": 2635997,
        "name": "Thorne",
        "country": "GB",
        "coord": {
            "lon": -0.96308,
            "lat": 53.611221
        }
    },
    {
        "id": 2636175,
        "name": "Tavernspite",
        "country": "GB",
        "coord": {
            "lon": -4.64111,
            "lat": 51.78194
        }
    },
    {
        "id": 7290622,
        "name": "West Oxfordshire District",
        "country": "GB",
        "coord": {
            "lon": -1.50136,
            "lat": 51.839882
        }
    },
    {
        "id": 2643697,
        "name": "Long Eaton",
        "country": "GB",
        "coord": {
            "lon": -1.27136,
            "lat": 52.898548
        }
    },
    {
        "id": 2649207,
        "name": "Forfar",
        "country": "GB",
        "coord": {
            "lon": -2.89026,
            "lat": 56.643131
        }
    },
    {
        "id": 7297451,
        "name": "Hungerford",
        "country": "GB",
        "coord": {
            "lon": -1.52201,
            "lat": 51.41671
        }
    },
    {
        "id": 2646411,
        "name": "Hungerford",
        "country": "GB",
        "coord": {
            "lon": -1.51556,
            "lat": 51.415131
        }
    },
    {
        "id": 7294533,
        "name": "Thornbury",
        "country": "GB",
        "coord": {
            "lon": -2.55531,
            "lat": 52.237991
        }
    },
    {
        "id": 7299856,
        "name": "Blaengwrach",
        "country": "GB",
        "coord": {
            "lon": -3.62173,
            "lat": 51.728111
        }
    },
    {
        "id": 3345326,
        "name": "Blaengwrach",
        "country": "GB",
        "coord": {
            "lon": -3.63915,
            "lat": 51.736851
        }
    },
    {
        "id": 7295589,
        "name": "Olney",
        "country": "GB",
        "coord": {
            "lon": -0.71375,
            "lat": 52.16486
        }
    },
    {
        "id": 2640972,
        "name": "Olney",
        "country": "GB",
        "coord": {
            "lon": -0.70201,
            "lat": 52.15345
        }
    },
    {
        "id": 7301705,
        "name": "Harden",
        "country": "GB",
        "coord": {
            "lon": -1.87311,
            "lat": 53.842739
        }
    },
    {
        "id": 2639944,
        "name": "Sir Powys",
        "country": "GB",
        "coord": {
            "lon": -3.41667,
            "lat": 52.333328
        }
    },
    {
        "id": 2654818,
        "name": "Brecon",
        "country": "GB",
        "coord": {
            "lon": -3.38601,
            "lat": 51.947651
        }
    },
    {
        "id": 2654817,
        "name": "Brecon",
        "country": "GB",
        "coord": {
            "lon": -3.38887,
            "lat": 51.946121
        }
    },
    {
        "id": 2641910,
        "name": "Nairn",
        "country": "GB",
        "coord": {
            "lon": -3.87973,
            "lat": 57.58094
        }
    },
    {
        "id": 6620335,
        "name": "Frankby",
        "country": "GB",
        "coord": {
            "lon": -3.13703,
            "lat": 53.372581
        }
    },
    {
        "id": 7290624,
        "name": "Sedgemoor District",
        "country": "GB",
        "coord": {
            "lon": -2.9619,
            "lat": 51.186409
        }
    },
    {
        "id": 2639563,
        "name": "Redcar",
        "country": "GB",
        "coord": {
            "lon": -1.05999,
            "lat": 54.61657
        }
    },
    {
        "id": 2643314,
        "name": "Lyme Regis",
        "country": "GB",
        "coord": {
            "lon": -2.93477,
            "lat": 50.72654
        }
    },
    {
        "id": 2647393,
        "name": "Hartpury",
        "country": "GB",
        "coord": {
            "lon": -2.29314,
            "lat": 51.924191
        }
    },
    {
        "id": 2646472,
        "name": "Hoylake",
        "country": "GB",
        "coord": {
            "lon": -3.18066,
            "lat": 53.390461
        }
    },
    {
        "id": 7292301,
        "name": "Crymych",
        "country": "GB",
        "coord": {
            "lon": -4.63719,
            "lat": 51.96452
        }
    },
    {
        "id": 2651796,
        "name": "Crymych",
        "country": "GB",
        "coord": {
            "lon": -4.64722,
            "lat": 51.97361
        }
    },
    {
        "id": 7294618,
        "name": "Llysfaen",
        "country": "GB",
        "coord": {
            "lon": -3.66256,
            "lat": 53.28157
        }
    },
    {
        "id": 2643867,
        "name": "Llysfaen",
        "country": "GB",
        "coord": {
            "lon": -3.66667,
            "lat": 53.283329
        }
    },
    {
        "id": 2650797,
        "name": "Dumfries and Galloway",
        "country": "GB",
        "coord": {
            "lon": -3.83333,
            "lat": 55.083328
        }
    },
    {
        "id": 2657293,
        "name": "Annan",
        "country": "GB",
        "coord": {
            "lon": -3.25647,
            "lat": 54.988392
        }
    },
    {
        "id": 2641331,
        "name": "Northiam",
        "country": "GB",
        "coord": {
            "lon": 0.60026,
            "lat": 50.994389
        }
    },
    {
        "id": 7294631,
        "name": "Marhamchurch",
        "country": "GB",
        "coord": {
            "lon": -4.51644,
            "lat": 50.79673
        }
    },
    {
        "id": 2643040,
        "name": "Marhamchurch",
        "country": "GB",
        "coord": {
            "lon": -4.52241,
            "lat": 50.80513
        }
    },
    {
        "id": 6945806,
        "name": "Shepway District",
        "country": "GB",
        "coord": {
            "lon": 1.15391,
            "lat": 51.081741
        }
    },
    {
        "id": 2649258,
        "name": "Folkestone",
        "country": "GB",
        "coord": {
            "lon": 1.18333,
            "lat": 51.083328
        }
    },
    {
        "id": 2652418,
        "name": "Cookstown District",
        "country": "GB",
        "coord": {
            "lon": -6.66667,
            "lat": 54.666672
        }
    },
    {
        "id": 2652417,
        "name": "Cookstown",
        "country": "GB",
        "coord": {
            "lon": -6.74595,
            "lat": 54.643051
        }
    },
    {
        "id": 2652725,
        "name": "Clunderwen",
        "country": "GB",
        "coord": {
            "lon": -4.73167,
            "lat": 51.840561
        }
    },
    {
        "id": 2634354,
        "name": "West Lothian",
        "country": "GB",
        "coord": {
            "lon": -3.5,
            "lat": 55.916672
        }
    },
    {
        "id": 2656169,
        "name": "Bathgate",
        "country": "GB",
        "coord": {
            "lon": -3.64398,
            "lat": 55.902039
        }
    },
    {
        "id": 2648559,
        "name": "Glastonbury",
        "country": "GB",
        "coord": {
            "lon": -2.71797,
            "lat": 51.147289
        }
    },
    {
        "id": 2646810,
        "name": "Hodbarrow",
        "country": "GB",
        "coord": {
            "lon": -3.25222,
            "lat": 54.195381
        }
    },
    {
        "id": 6949212,
        "name": "Ham",
        "country": "GB",
        "coord": {
            "lon": -0.30933,
            "lat": 51.436192
        }
    },
    {
        "id": 2650725,
        "name": "Dunglass",
        "country": "GB",
        "coord": {
            "lon": -2.36667,
            "lat": 55.933331
        }
    },
    {
        "id": 2646455,
        "name": "Hugglescote",
        "country": "GB",
        "coord": {
            "lon": -1.37179,
            "lat": 52.709759
        }
    },
    {
        "id": 6619866,
        "name": "East Croydon Railway Station",
        "country": "GB",
        "coord": {
            "lon": -0.0925,
            "lat": 51.375
        }
    },
    {
        "id": 2654464,
        "name": "Bruichladdich",
        "country": "GB",
        "coord": {
            "lon": -6.36134,
            "lat": 55.766151
        }
    },
    {
        "id": 7300017,
        "name": "Lawhitton Rural",
        "country": "GB",
        "coord": {
            "lon": -4.32263,
            "lat": 50.621391
        }
    },
    {
        "id": 7301014,
        "name": "Llanfyllin",
        "country": "GB",
        "coord": {
            "lon": -3.31067,
            "lat": 52.774261
        }
    },
    {
        "id": 2644053,
        "name": "Llanfyllin",
        "country": "GB",
        "coord": {
            "lon": -3.27187,
            "lat": 52.765701
        }
    },
    {
        "id": 7298240,
        "name": "Epworth",
        "country": "GB",
        "coord": {
            "lon": -0.83465,
            "lat": 53.538929
        }
    },
    {
        "id": 2642486,
        "name": "Milnathort",
        "country": "GB",
        "coord": {
            "lon": -3.4193,
            "lat": 56.226879
        }
    },
    {
        "id": 2649298,
        "name": "County of Flintshire",
        "country": "GB",
        "coord": {
            "lon": -3.16667,
            "lat": 53.25
        }
    },
    {
        "id": 7301170,
        "name": "Mostyn",
        "country": "GB",
        "coord": {
            "lon": -3.24684,
            "lat": 53.31588
        }
    },
    {
        "id": 2644159,
        "name": "Llandarcy",
        "country": "GB",
        "coord": {
            "lon": -3.85657,
            "lat": 51.642262
        }
    },
    {
        "id": 2640551,
        "name": "Payhembury",
        "country": "GB",
        "coord": {
            "lon": -3.29518,
            "lat": 50.80674
        }
    },
    {
        "id": 7297046,
        "name": "Llangamarch",
        "country": "GB",
        "coord": {
            "lon": -3.58225,
            "lat": 52.08548
        }
    },
    {
        "id": 7295209,
        "name": "Bala",
        "country": "GB",
        "coord": {
            "lon": -3.60141,
            "lat": 52.91077
        }
    },
    {
        "id": 2655692,
        "name": "Biggar",
        "country": "GB",
        "coord": {
            "lon": -3.51667,
            "lat": 55.616669
        }
    },
    {
        "id": 7293134,
        "name": "North Lodge",
        "country": "GB",
        "coord": {
            "lon": -1.55754,
            "lat": 54.873711
        }
    },
    {
        "id": 2646228,
        "name": "Inchture",
        "country": "GB",
        "coord": {
            "lon": -3.16956,
            "lat": 56.445511
        }
    },
    {
        "id": 7293619,
        "name": "Beddgelert",
        "country": "GB",
        "coord": {
            "lon": -4.06923,
            "lat": 53.028229
        }
    },
    {
        "id": 2657340,
        "name": "Ampney Crucis",
        "country": "GB",
        "coord": {
            "lon": -1.905,
            "lat": 51.713989
        }
    },
    {
        "id": 7298755,
        "name": "Maesycwmmer",
        "country": "GB",
        "coord": {
            "lon": -3.21639,
            "lat": 51.63755
        }
    },
    {
        "id": 2638043,
        "name": "Shepherds Bush",
        "country": "GB",
        "coord": {
            "lon": -0.23767,
            "lat": 51.51569
        }
    },
    {
        "id": 2644290,
        "name": "Little Massingham",
        "country": "GB",
        "coord": {
            "lon": 0.65888,
            "lat": 52.78561
        }
    },
    {
        "id": 7292365,
        "name": "Bodedern",
        "country": "GB",
        "coord": {
            "lon": -4.49044,
            "lat": 53.293251
        }
    },
    {
        "id": 2652649,
        "name": "Coedely",
        "country": "GB",
        "coord": {
            "lon": -3.4163,
            "lat": 51.56189
        }
    },
    {
        "id": 7290566,
        "name": "Hertsmere District",
        "country": "GB",
        "coord": {
            "lon": -0.27344,
            "lat": 51.68037
        }
    },
    {
        "id": 7293816,
        "name": "Tarbock",
        "country": "GB",
        "coord": {
            "lon": -2.80607,
            "lat": 53.381989
        }
    },
    {
        "id": 7299727,
        "name": "Gorseinon",
        "country": "GB",
        "coord": {
            "lon": -4.05247,
            "lat": 51.676842
        }
    },
    {
        "id": 2656281,
        "name": "Barnstaple",
        "country": "GB",
        "coord": {
            "lon": -4.05808,
            "lat": 51.080219
        }
    },
    {
        "id": 7290690,
        "name": "Braintree District",
        "country": "GB",
        "coord": {
            "lon": 0.58263,
            "lat": 51.91824
        }
    },
    {
        "id": 2645841,
        "name": "Kelvedon",
        "country": "GB",
        "coord": {
            "lon": 0.7057,
            "lat": 51.840069
        }
    },
    {
        "id": 2653368,
        "name": "Chapel en le Frith",
        "country": "GB",
        "coord": {
            "lon": -1.91291,
            "lat": 53.32407
        }
    },
    {
        "id": 2645194,
        "name": "Kirmington",
        "country": "GB",
        "coord": {
            "lon": -0.33371,
            "lat": 53.586491
        }
    },
    {
        "id": 2652229,
        "name": "Cove",
        "country": "GB",
        "coord": {
            "lon": -0.79076,
            "lat": 51.295471
        }
    },
    {
        "id": 2633406,
        "name": "Yate",
        "country": "GB",
        "coord": {
            "lon": -2.41839,
            "lat": 51.540741
        }
    },
    {
        "id": 2633551,
        "name": "Worksop",
        "country": "GB",
        "coord": {
            "lon": -1.12404,
            "lat": 53.301819
        }
    },
    {
        "id": 2637235,
        "name": "Spennymoor",
        "country": "GB",
        "coord": {
            "lon": -1.60229,
            "lat": 54.698799
        }
    },
    {
        "id": 2637265,
        "name": "Spalding",
        "country": "GB",
        "coord": {
            "lon": -0.15141,
            "lat": 52.78709
        }
    },
    {
        "id": 2637329,
        "name": "South Shields",
        "country": "GB",
        "coord": {
            "lon": -1.4323,
            "lat": 54.998589
        }
    },
    {
        "id": 2638419,
        "name": "Scarborough",
        "country": "GB",
        "coord": {
            "lon": -0.40443,
            "lat": 54.279659
        }
    },
    {
        "id": 2639323,
        "name": "Ripon",
        "country": "GB",
        "coord": {
            "lon": -1.52122,
            "lat": 54.135208
        }
    },
    {
        "id": 2639325,
        "name": "Ripley",
        "country": "GB",
        "coord": {
            "lon": -1.4,
            "lat": 53.033329
        }
    },
    {
        "id": 2639588,
        "name": "Rawmarsh",
        "country": "GB",
        "coord": {
            "lon": -1.34437,
            "lat": 53.460621
        }
    },
    {
        "id": 2640054,
        "name": "Porthcawl",
        "country": "GB",
        "coord": {
            "lon": -3.70362,
            "lat": 51.479031
        }
    },
    {
        "id": 2641942,
        "name": "Musselburgh",
        "country": "GB",
        "coord": {
            "lon": -3.04991,
            "lat": 55.9417
        }
    },
    {
        "id": 2642189,
        "name": "Morley",
        "country": "GB",
        "coord": {
            "lon": -1.59877,
            "lat": 53.740131
        }
    },
    {
        "id": 2642763,
        "name": "Melton Mowbray",
        "country": "GB",
        "coord": {
            "lon": -0.88693,
            "lat": 52.765881
        }
    },
    {
        "id": 2643218,
        "name": "Maesteg",
        "country": "GB",
        "coord": {
            "lon": -3.65823,
            "lat": 51.609261
        }
    },
    {
        "id": 2643266,
        "name": "Macclesfield",
        "country": "GB",
        "coord": {
            "lon": -2.12564,
            "lat": 53.260231
        }
    },
    {
        "id": 2644386,
        "name": "Litherland",
        "country": "GB",
        "coord": {
            "lon": -2.99809,
            "lat": 53.469929
        }
    },
    {
        "id": 2645420,
        "name": "Kingswinford",
        "country": "GB",
        "coord": {
            "lon": -2.16889,
            "lat": 52.497551
        }
    },
    {
        "id": 2647209,
        "name": "Hebburn",
        "country": "GB",
        "coord": {
            "lon": -1.51546,
            "lat": 54.973019
        }
    },
    {
        "id": 2647785,
        "name": "Guisborough",
        "country": "GB",
        "coord": {
            "lon": -1.05606,
            "lat": 54.534779
        }
    },
    {
        "id": 2648215,
        "name": "Grangemouth",
        "country": "GB",
        "coord": {
            "lon": -3.72183,
            "lat": 56.01141
        }
    },
    {
        "id": 2648945,
        "name": "Gainsborough",
        "country": "GB",
        "coord": {
            "lon": -0.76667,
            "lat": 53.383331
        }
    },
    {
        "id": 2650309,
        "name": "Eastwood",
        "country": "GB",
        "coord": {
            "lon": -1.3,
            "lat": 53
        }
    },
    {
        "id": 2650405,
        "name": "East Kilbride",
        "country": "GB",
        "coord": {
            "lon": -4.16667,
            "lat": 55.76667
        }
    },
    {
        "id": 2651715,
        "name": "Cumbernauld",
        "country": "GB",
        "coord": {
            "lon": -3.99051,
            "lat": 55.94685
        }
    },
    {
        "id": 2652095,
        "name": "Cramlington",
        "country": "GB",
        "coord": {
            "lon": -1.58598,
            "lat": 55.086521
        }
    },
    {
        "id": 2652513,
        "name": "Colwyn Bay",
        "country": "GB",
        "coord": {
            "lon": -3.72674,
            "lat": 53.29483
        }
    },
    {
        "id": 2652622,
        "name": "Coity",
        "country": "GB",
        "coord": {
            "lon": -3.55531,
            "lat": 51.521999
        }
    },
    {
        "id": 2652696,
        "name": "Coatbridge",
        "country": "GB",
        "coord": {
            "lon": -4.02469,
            "lat": 55.86216
        }
    },
    {
        "id": 2652885,
        "name": "Cleethorpes",
        "country": "GB",
        "coord": {
            "lon": -0.03225,
            "lat": 53.560471
        }
    },
    {
        "id": 2652974,
        "name": "Clacton-on-Sea",
        "country": "GB",
        "coord": {
            "lon": 1.15597,
            "lat": 51.789669
        }
    },
    {
        "id": 2654724,
        "name": "Brierley Hill",
        "country": "GB",
        "coord": {
            "lon": -2.12139,
            "lat": 52.481731
        }
    },
    {
        "id": 2655882,
        "name": "Bentley",
        "country": "GB",
        "coord": {
            "lon": -1.15,
            "lat": 53.533329
        }
    },
    {
        "id": 2656627,
        "name": "Baildon",
        "country": "GB",
        "coord": {
            "lon": -1.78785,
            "lat": 53.847111
        }
    },
    {
        "id": 2656708,
        "name": "Ayr",
        "country": "GB",
        "coord": {
            "lon": -4.63393,
            "lat": 55.46273
        }
    },
    {
        "id": 2657030,
        "name": "Arnold",
        "country": "GB",
        "coord": {
            "lon": -1.13333,
            "lat": 53
        }
    },
    {
        "id": 2657613,
        "name": "Airdrie",
        "country": "GB",
        "coord": {
            "lon": -3.98025,
            "lat": 55.86602
        }
    },
    {
        "id": 3333138,
        "name": "Camden",
        "country": "GB",
        "coord": {
            "lon": -0.15942,
            "lat": 51.542809
        }
    },
    {
        "id": 3333166,
        "name": "Lewisham",
        "country": "GB",
        "coord": {
            "lon": -0.018,
            "lat": 51.453548
        }
    },
    {
        "id": 2646003,
        "name": "Islington",
        "country": "GB",
        "coord": {
            "lon": -0.10304,
            "lat": 51.536221
        }
    },
    {
        "id": 7290561,
        "name": "Test Valley District",
        "country": "GB",
        "coord": {
            "lon": -1.50004,
            "lat": 51.133259
        }
    },
    {
        "id": 2642367,
        "name": "Mole Valley",
        "country": "GB",
        "coord": {
            "lon": -0.4,
            "lat": 51.150002
        }
    },
    {
        "id": 3333140,
        "name": "Croydon",
        "country": "GB",
        "coord": {
            "lon": -0.10574,
            "lat": 51.37664
        }
    },
    {
        "id": 6690806,
        "name": "Cranham",
        "country": "GB",
        "coord": {
            "lon": 0.2659,
            "lat": 51.565651
        }
    },
    {
        "id": 3333244,
        "name": "Monmouthshire",
        "country": "GB",
        "coord": {
            "lon": -2.83333,
            "lat": 51.75
        }
    },
    {
        "id": 7301587,
        "name": "Chepstow",
        "country": "GB",
        "coord": {
            "lon": -2.67698,
            "lat": 51.620621
        }
    },
    {
        "id": 7290545,
        "name": "Maldon District",
        "country": "GB",
        "coord": {
            "lon": 0.78731,
            "lat": 51.723282
        }
    },
    {
        "id": 7290634,
        "name": "Ipswich District",
        "country": "GB",
        "coord": {
            "lon": 1.16719,
            "lat": 52.056839
        }
    },
    {
        "id": 7299971,
        "name": "Castor",
        "country": "GB",
        "coord": {
            "lon": -0.32257,
            "lat": 52.579399
        }
    },
    {
        "id": 3333127,
        "name": "Borough of Blackpool",
        "country": "GB",
        "coord": {
            "lon": -3.03333,
            "lat": 53.833328
        }
    },
    {
        "id": 2647864,
        "name": "Grindon",
        "country": "GB",
        "coord": {
            "lon": -2.28333,
            "lat": 55.01667
        }
    },
    {
        "id": 7300362,
        "name": "Shrewton",
        "country": "GB",
        "coord": {
            "lon": -1.92052,
            "lat": 51.203442
        }
    },
    {
        "id": 2645442,
        "name": "Kingsteignton",
        "country": "GB",
        "coord": {
            "lon": -3.58333,
            "lat": 50.549999
        }
    },
    {
        "id": 2635414,
        "name": "Trumpington",
        "country": "GB",
        "coord": {
            "lon": 0.11261,
            "lat": 52.172138
        }
    },
    {
        "id": 7298375,
        "name": "Lambourn",
        "country": "GB",
        "coord": {
            "lon": -1.53186,
            "lat": 51.503609
        }
    },
    {
        "id": 2649469,
        "name": "Fife",
        "country": "GB",
        "coord": {
            "lon": -3.16667,
            "lat": 56.25
        }
    },
    {
        "id": 2646828,
        "name": "Histon",
        "country": "GB",
        "coord": {
            "lon": 0.10643,
            "lat": 52.251659
        }
    },
    {
        "id": 2636533,
        "name": "Sunbury Common",
        "country": "GB",
        "coord": {
            "lon": -0.44014,
            "lat": 51.422119
        }
    },
    {
        "id": 2640766,
        "name": "Overstrand",
        "country": "GB",
        "coord": {
            "lon": 1.339,
            "lat": 52.916229
        }
    },
    {
        "id": 2657799,
        "name": "Aberllefenni",
        "country": "GB",
        "coord": {
            "lon": -3.81667,
            "lat": 52.666672
        }
    },
    {
        "id": 2637414,
        "name": "South Hams District",
        "country": "GB",
        "coord": {
            "lon": -3.83333,
            "lat": 50.400002
        }
    },
    {
        "id": 2647071,
        "name": "Herefordshire",
        "country": "GB",
        "coord": {
            "lon": -2.75,
            "lat": 52.083328
        }
    },
    {
        "id": 2647077,
        "name": "Hepworth",
        "country": "GB",
        "coord": {
            "lon": 0.91238,
            "lat": 52.335861
        }
    },
    {
        "id": 2653497,
        "name": "Catterick Camp",
        "country": "GB",
        "coord": {
            "lon": -1.71667,
            "lat": 54.349998
        }
    },
    {
        "id": 7290686,
        "name": "Eastbourne District",
        "country": "GB",
        "coord": {
            "lon": 0.27629,
            "lat": 50.772659
        }
    },
    {
        "id": 2633901,
        "name": "Willingdon",
        "country": "GB",
        "coord": {
            "lon": 0.255,
            "lat": 50.800079
        }
    },
    {
        "id": 2651334,
        "name": "Derrygonnelly",
        "country": "GB",
        "coord": {
            "lon": -7.8,
            "lat": 54.433331
        }
    },
    {
        "id": 2647198,
        "name": "Heckmondwike",
        "country": "GB",
        "coord": {
            "lon": -1.67747,
            "lat": 53.706459
        }
    },
    {
        "id": 2657302,
        "name": "Anlaby",
        "country": "GB",
        "coord": {
            "lon": -0.40529,
            "lat": 53.742519
        }
    },
    {
        "id": 2636429,
        "name": "Swan Village",
        "country": "GB",
        "coord": {
            "lon": -2.01667,
            "lat": 52.533329
        }
    },
    {
        "id": 7297161,
        "name": "Cwm Cadnant",
        "country": "GB",
        "coord": {
            "lon": -4.14981,
            "lat": 53.258709
        }
    },
    {
        "id": 2644139,
        "name": "Llandegfan",
        "country": "GB",
        "coord": {
            "lon": -4.15,
            "lat": 53.243961
        }
    },
    {
        "id": 2649210,
        "name": "Forest Row",
        "country": "GB",
        "coord": {
            "lon": 0.03262,
            "lat": 51.096409
        }
    },
    {
        "id": 3333198,
        "name": "South Gloucestershire",
        "country": "GB",
        "coord": {
            "lon": -2.41667,
            "lat": 51.5
        }
    },
    {
        "id": 6545316,
        "name": "Widley",
        "country": "GB",
        "coord": {
            "lon": -1.05087,
            "lat": 50.855381
        }
    },
    {
        "id": 2645340,
        "name": "Kirby Cross",
        "country": "GB",
        "coord": {
            "lon": 1.2188,
            "lat": 51.84177
        }
    },
    {
        "id": 2638821,
        "name": "Saint Davids",
        "country": "GB",
        "coord": {
            "lon": -3.35,
            "lat": 56.033329
        }
    },
    {
        "id": 7290679,
        "name": "West Devon District",
        "country": "GB",
        "coord": {
            "lon": -4.03255,
            "lat": 50.65144
        }
    },
    {
        "id": 2645978,
        "name": "Jacobstowe",
        "country": "GB",
        "coord": {
            "lon": -4.00637,
            "lat": 50.796459
        }
    },
    {
        "id": 2646959,
        "name": "Highgate",
        "country": "GB",
        "coord": {
            "lon": 0.51667,
            "lat": 51.033329
        }
    },
    {
        "id": 2656539,
        "name": "Ballogie",
        "country": "GB",
        "coord": {
            "lon": -2.70504,
            "lat": 57.048569
        }
    },
    {
        "id": 2634611,
        "name": "Weeke",
        "country": "GB",
        "coord": {
            "lon": -1.33333,
            "lat": 51.066669
        }
    },
    {
        "id": 2651181,
        "name": "Doddington",
        "country": "GB",
        "coord": {
            "lon": 0.06017,
            "lat": 52.496712
        }
    },
    {
        "id": 7301166,
        "name": "Valley",
        "country": "GB",
        "coord": {
            "lon": -4.55395,
            "lat": 53.288288
        }
    },
    {
        "id": 2635022,
        "name": "Valley",
        "country": "GB",
        "coord": {
            "lon": -4.56644,
            "lat": 53.284901
        }
    },
    {
        "id": 2646658,
        "name": "Honiton",
        "country": "GB",
        "coord": {
            "lon": -3.18899,
            "lat": 50.799599
        }
    },
    {
        "id": 2646355,
        "name": "Hurstpierpoint",
        "country": "GB",
        "coord": {
            "lon": -0.18007,
            "lat": 50.93388
        }
    },
    {
        "id": 7290658,
        "name": "Wychavon District",
        "country": "GB",
        "coord": {
            "lon": -2.01531,
            "lat": 52.179901
        }
    },
    {
        "id": 2649366,
        "name": "Fishponds",
        "country": "GB",
        "coord": {
            "lon": -2.52361,
            "lat": 51.48167
        }
    },
    {
        "id": 2640500,
        "name": "Pembrokeshire",
        "country": "GB",
        "coord": {
            "lon": -4.91667,
            "lat": 51.833328
        }
    },
    {
        "id": 2653211,
        "name": "Chettisham",
        "country": "GB",
        "coord": {
            "lon": 0.2756,
            "lat": 52.42263
        }
    },
    {
        "id": 7294442,
        "name": "Redruth",
        "country": "GB",
        "coord": {
            "lon": -5.22912,
            "lat": 50.23864
        }
    },
    {
        "id": 2647262,
        "name": "Hayes",
        "country": "GB",
        "coord": {
            "lon": 0.01905,
            "lat": 51.377781
        }
    },
    {
        "id": 7290601,
        "name": "Daventry District",
        "country": "GB",
        "coord": {
            "lon": -1.0337,
            "lat": 52.309879
        }
    },
    {
        "id": 2636909,
        "name": "Stirling",
        "country": "GB",
        "coord": {
            "lon": -4.23386,
            "lat": 56.115318
        }
    },
    {
        "id": 3333231,
        "name": "Glasgow City",
        "country": "GB",
        "coord": {
            "lon": -4.25,
            "lat": 55.866669
        }
    },
    {
        "id": 2638926,
        "name": "Rutherglen",
        "country": "GB",
        "coord": {
            "lon": -4.21376,
            "lat": 55.82885
        }
    },
    {
        "id": 2640156,
        "name": "Polmadie",
        "country": "GB",
        "coord": {
            "lon": -4.24181,
            "lat": 55.83699
        }
    },
    {
        "id": 3333224,
        "name": "Aberdeen City",
        "country": "GB",
        "coord": {
            "lon": -2.16667,
            "lat": 57.166672
        }
    },
    {
        "id": 2635630,
        "name": "Torry",
        "country": "GB",
        "coord": {
            "lon": -2.08672,
            "lat": 57.136959
        }
    },
    {
        "id": 7302137,
        "name": "West Ealing",
        "country": "GB",
        "coord": {
            "lon": -0.3196,
            "lat": 51.51075
        }
    },
    {
        "id": 7290565,
        "name": "East Hertfordshire District",
        "country": "GB",
        "coord": {
            "lon": 0.00761,
            "lat": 51.865219
        }
    },
    {
        "id": 6621558,
        "name": "Hockerill",
        "country": "GB",
        "coord": {
            "lon": 0.17021,
            "lat": 51.86692
        }
    },
    {
        "id": 2645758,
        "name": "Keston",
        "country": "GB",
        "coord": {
            "lon": 0.02747,
            "lat": 51.36219
        }
    },
    {
        "id": 2641373,
        "name": "North East Derbyshire",
        "country": "GB",
        "coord": {
            "lon": -1.5,
            "lat": 53.200001
        }
    },
    {
        "id": 2637483,
        "name": "South Bank",
        "country": "GB",
        "coord": {
            "lon": -1.15,
            "lat": 54.566669
        }
    },
    {
        "id": 7300102,
        "name": "Allesley",
        "country": "GB",
        "coord": {
            "lon": -1.58084,
            "lat": 52.43895
        }
    },
    {
        "id": 2642316,
        "name": "Monkwearmouth",
        "country": "GB",
        "coord": {
            "lon": -1.3823,
            "lat": 54.914551
        }
    },
    {
        "id": 3333223,
        "name": "City of Belfast",
        "country": "GB",
        "coord": {
            "lon": -5.91667,
            "lat": 54.583328
        }
    },
    {
        "id": 3333126,
        "name": "Borough of Blackburn with Darwen",
        "country": "GB",
        "coord": {
            "lon": -2.46667,
            "lat": 53.666672
        }
    },
    {
        "id": 2638315,
        "name": "Seacombe",
        "country": "GB",
        "coord": {
            "lon": -3.01781,
            "lat": 53.409569
        }
    },
    {
        "id": 7290534,
        "name": "Bedford",
        "country": "GB",
        "coord": {
            "lon": -0.45316,
            "lat": 52.188309
        }
    },
    {
        "id": 7290675,
        "name": "Exeter District",
        "country": "GB",
        "coord": {
            "lon": -3.50945,
            "lat": 50.71677
        }
    },
    {
        "id": 2657436,
        "name": "Alphington",
        "country": "GB",
        "coord": {
            "lon": -3.53168,
            "lat": 50.698528
        }
    },
    {
        "id": 7290618,
        "name": "Newark and Sherwood District",
        "country": "GB",
        "coord": {
            "lon": -0.92049,
            "lat": 53.108681
        }
    },
    {
        "id": 2633351,
        "name": "City of York",
        "country": "GB",
        "coord": {
            "lon": -1.09142,
            "lat": 53.963959
        }
    },
    {
        "id": 3333216,
        "name": "Borough of Warrington",
        "country": "GB",
        "coord": {
            "lon": -2.58333,
            "lat": 53.416672
        }
    },
    {
        "id": 2647126,
        "name": "Hempstead",
        "country": "GB",
        "coord": {
            "lon": -2.26667,
            "lat": 51.849998
        }
    },
    {
        "id": 3333165,
        "name": "City of Leicester",
        "country": "GB",
        "coord": {
            "lon": -1.13333,
            "lat": 52.633331
        }
    },
    {
        "id": 7293012,
        "name": "Shavington cum Gresty",
        "country": "GB",
        "coord": {
            "lon": -2.45214,
            "lat": 53.06834
        }
    },
    {
        "id": 3333246,
        "name": "City of Newport",
        "country": "GB",
        "coord": {
            "lon": -3,
            "lat": 51.583328
        }
    },
    {
        "id": 7293037,
        "name": "Mollington",
        "country": "GB",
        "coord": {
            "lon": -2.92747,
            "lat": 53.227242
        }
    },
    {
        "id": 6698331,
        "name": "Blacon",
        "country": "GB",
        "coord": {
            "lon": -2.9253,
            "lat": 53.208321
        }
    },
    {
        "id": 7295925,
        "name": "Kirkburton",
        "country": "GB",
        "coord": {
            "lon": -1.69371,
            "lat": 53.628948
        }
    },
    {
        "id": 2634723,
        "name": "Warwickshire",
        "country": "GB",
        "coord": {
            "lon": -1.58333,
            "lat": 52.333328
        }
    },
    {
        "id": 2638663,
        "name": "Salisbury",
        "country": "GB",
        "coord": {
            "lon": -1.80924,
            "lat": 51.079708
        }
    },
    {
        "id": 2653515,
        "name": "Cathays",
        "country": "GB",
        "coord": {
            "lon": -3.2,
            "lat": 51.5
        }
    },
    {
        "id": 2634451,
        "name": "West Drayton",
        "country": "GB",
        "coord": {
            "lon": -0.46667,
            "lat": 51.5
        }
    },
    {
        "id": 2645016,
        "name": "Laleham",
        "country": "GB",
        "coord": {
            "lon": -0.48936,
            "lat": 51.409592
        }
    },
    {
        "id": 2650079,
        "name": "Elmbridge District",
        "country": "GB",
        "coord": {
            "lon": -0.4,
            "lat": 51.349998
        }
    },
    {
        "id": 2656943,
        "name": "Ashleworth",
        "country": "GB",
        "coord": {
            "lon": -2.27543,
            "lat": 51.92905
        }
    },
    {
        "id": 7290576,
        "name": "Burnley District",
        "country": "GB",
        "coord": {
            "lon": -2.22584,
            "lat": 53.773918
        }
    },
    {
        "id": 2636617,
        "name": "Stroud",
        "country": "GB",
        "coord": {
            "lon": -2.2,
            "lat": 51.75
        }
    },
    {
        "id": 7291575,
        "name": "Cwmbwrla",
        "country": "GB",
        "coord": {
            "lon": -3.95508,
            "lat": 51.639751
        }
    },
    {
        "id": 6621401,
        "name": "Cwmbwrla",
        "country": "GB",
        "coord": {
            "lon": -3.96085,
            "lat": 51.637138
        }
    },
    {
        "id": 7298046,
        "name": "Orton Longueville",
        "country": "GB",
        "coord": {
            "lon": -0.28702,
            "lat": 52.555241
        }
    },
    {
        "id": 2639018,
        "name": "Royston",
        "country": "GB",
        "coord": {
            "lon": -0.02438,
            "lat": 52.048321
        }
    },
    {
        "id": 7290626,
        "name": "Taunton Deane District",
        "country": "GB",
        "coord": {
            "lon": -3.14856,
            "lat": 51.004211
        }
    },
    {
        "id": 7296114,
        "name": "Humberston",
        "country": "GB",
        "coord": {
            "lon": -0.01549,
            "lat": 53.527859
        }
    },
    {
        "id": 2646435,
        "name": "Humberston",
        "country": "GB",
        "coord": {
            "lon": -0.02465,
            "lat": 53.530361
        }
    },
    {
        "id": 2652587,
        "name": "Coleraine District",
        "country": "GB",
        "coord": {
            "lon": -6.66667,
            "lat": 55.083328
        }
    },
    {
        "id": 2653191,
        "name": "Chichester District",
        "country": "GB",
        "coord": {
            "lon": -0.78333,
            "lat": 50.916672
        }
    },
    {
        "id": 7297566,
        "name": "Knutsford",
        "country": "GB",
        "coord": {
            "lon": -2.36549,
            "lat": 53.303341
        }
    },
    {
        "id": 2657061,
        "name": "Armagh District",
        "country": "GB",
        "coord": {
            "lon": -6.5,
            "lat": 54.333328
        }
    },
    {
        "id": 6690875,
        "name": "Norwood Green",
        "country": "GB",
        "coord": {
            "lon": -0.37628,
            "lat": 51.495392
        }
    },
    {
        "id": 7290640,
        "name": "Guildford District",
        "country": "GB",
        "coord": {
            "lon": -0.56621,
            "lat": 51.25182
        }
    },
    {
        "id": 2654410,
        "name": "Buckingham",
        "country": "GB",
        "coord": {
            "lon": -0.98779,
            "lat": 51.99968
        }
    },
    {
        "id": 3333176,
        "name": "North Lincolnshire",
        "country": "GB",
        "coord": {
            "lon": -0.5,
            "lat": 53.583328
        }
    },
    {
        "id": 7296014,
        "name": "Cardigan",
        "country": "GB",
        "coord": {
            "lon": -4.65469,
            "lat": 52.084251
        }
    },
    {
        "id": 2653818,
        "name": "Cardigan",
        "country": "GB",
        "coord": {
            "lon": -4.65906,
            "lat": 52.084728
        }
    },
    {
        "id": 2651391,
        "name": "Delph",
        "country": "GB",
        "coord": {
            "lon": -2.11667,
            "lat": 52.466671
        }
    },
    {
        "id": 7290689,
        "name": "Basildon District",
        "country": "GB",
        "coord": {
            "lon": 0.47361,
            "lat": 51.590019
        }
    },
    {
        "id": 3333131,
        "name": "City and Borough of Bradford",
        "country": "GB",
        "coord": {
            "lon": -1.83333,
            "lat": 53.833328
        }
    },
    {
        "id": 7301702,
        "name": "Keighley",
        "country": "GB",
        "coord": {
            "lon": -1.93194,
            "lat": 53.86768
        }
    },
    {
        "id": 3333188,
        "name": "Borough of Rochdale",
        "country": "GB",
        "coord": {
            "lon": -2.16667,
            "lat": 53.583328
        }
    },
    {
        "id": 7290620,
        "name": "Cherwell District",
        "country": "GB",
        "coord": {
            "lon": -1.2835,
            "lat": 51.974251
        }
    },
    {
        "id": 2646127,
        "name": "Inverclyde",
        "country": "GB",
        "coord": {
            "lon": -4.75,
            "lat": 55.900002
        }
    },
    {
        "id": 2647948,
        "name": "Greenock",
        "country": "GB",
        "coord": {
            "lon": -4.76121,
            "lat": 55.94838
        }
    },
    {
        "id": 7290580,
        "name": "Pendle District",
        "country": "GB",
        "coord": {
            "lon": -2.1879,
            "lat": 53.878769
        }
    },
    {
        "id": 7290684,
        "name": "West Dorset District",
        "country": "GB",
        "coord": {
            "lon": -2.61023,
            "lat": 50.794552
        }
    },
    {
        "id": 7299867,
        "name": "Neath",
        "country": "GB",
        "coord": {
            "lon": -3.79898,
            "lat": 51.65432
        }
    },
    {
        "id": 7290563,
        "name": "Broxbourne District",
        "country": "GB",
        "coord": {
            "lon": -0.04821,
            "lat": 51.730259
        }
    },
    {
        "id": 2639494,
        "name": "Renfrewshire",
        "country": "GB",
        "coord": {
            "lon": -4.5,
            "lat": 55.833328
        }
    },
    {
        "id": 2650128,
        "name": "Elderslie",
        "country": "GB",
        "coord": {
            "lon": -4.48598,
            "lat": 55.833271
        }
    },
    {
        "id": 7297568,
        "name": "Little Stanney",
        "country": "GB",
        "coord": {
            "lon": -2.88331,
            "lat": 53.262939
        }
    },
    {
        "id": 7299167,
        "name": "Ryde",
        "country": "GB",
        "coord": {
            "lon": -1.17024,
            "lat": 50.724129
        }
    },
    {
        "id": 7290680,
        "name": "Christchurch District",
        "country": "GB",
        "coord": {
            "lon": -1.77639,
            "lat": 50.76453
        }
    },
    {
        "id": 7290585,
        "name": "Harborough District",
        "country": "GB",
        "coord": {
            "lon": -1.00808,
            "lat": 52.538181
        }
    },
    {
        "id": 6693123,
        "name": "Churchtown",
        "country": "GB",
        "coord": {
            "lon": -2.9821,
            "lat": 53.660709
        }
    },
    {
        "id": 2654412,
        "name": "Buckhurst Hill",
        "country": "GB",
        "coord": {
            "lon": 0.03262,
            "lat": 51.624088
        }
    },
    {
        "id": 2636511,
        "name": "Surrey Heath",
        "country": "GB",
        "coord": {
            "lon": -0.66199,
            "lat": 51.33585
        }
    },
    {
        "id": 7294543,
        "name": "Hereford",
        "country": "GB",
        "coord": {
            "lon": -2.72365,
            "lat": 52.05302
        }
    },
    {
        "id": 7297742,
        "name": "Denbigh",
        "country": "GB",
        "coord": {
            "lon": -3.41528,
            "lat": 53.187599
        }
    },
    {
        "id": 2637035,
        "name": "Stanwell",
        "country": "GB",
        "coord": {
            "lon": -0.47812,
            "lat": 51.45414
        }
    },
    {
        "id": 7290671,
        "name": "Erewash District",
        "country": "GB",
        "coord": {
            "lon": -1.3576,
            "lat": 52.93766
        }
    },
    {
        "id": 7301521,
        "name": "Hermitage",
        "country": "GB",
        "coord": {
            "lon": -1.25947,
            "lat": 51.450119
        }
    },
    {
        "id": 2637753,
        "name": "Skelmanthorpe",
        "country": "GB",
        "coord": {
            "lon": -1.65173,
            "lat": 53.590569
        }
    },
    {
        "id": 7299979,
        "name": "Bodmin",
        "country": "GB",
        "coord": {
            "lon": -4.71603,
            "lat": 50.467758
        }
    },
    {
        "id": 2655273,
        "name": "Bodmin",
        "country": "GB",
        "coord": {
            "lon": -4.7243,
            "lat": 50.471512
        }
    },
    {
        "id": 2647101,
        "name": "Henley on Thames",
        "country": "GB",
        "coord": {
            "lon": -0.9,
            "lat": 51.533329
        }
    },
    {
        "id": 2642992,
        "name": "Marsden",
        "country": "GB",
        "coord": {
            "lon": -1.91667,
            "lat": 53.599998
        }
    },
    {
        "id": 7290623,
        "name": "Mendip District",
        "country": "GB",
        "coord": {
            "lon": -2.54222,
            "lat": 51.193981
        }
    },
    {
        "id": 2646613,
        "name": "Horbury",
        "country": "GB",
        "coord": {
            "lon": -1.56014,
            "lat": 53.660511
        }
    },
    {
        "id": 2635697,
        "name": "Tong",
        "country": "GB",
        "coord": {
            "lon": -1.66426,
            "lat": 53.773472
        }
    },
    {
        "id": 7299873,
        "name": "Maulden",
        "country": "GB",
        "coord": {
            "lon": -0.45542,
            "lat": 52.028851
        }
    },
    {
        "id": 2642902,
        "name": "Maulden",
        "country": "GB",
        "coord": {
            "lon": -0.46975,
            "lat": 52.030628
        }
    },
    {
        "id": 7290669,
        "name": "Chesterfield District",
        "country": "GB",
        "coord": {
            "lon": -1.3912,
            "lat": 53.25544
        }
    },
    {
        "id": 2651983,
        "name": "Crieff",
        "country": "GB",
        "coord": {
            "lon": -3.83891,
            "lat": 56.372681
        }
    },
    {
        "id": 2634275,
        "name": "Westruther",
        "country": "GB",
        "coord": {
            "lon": -2.58452,
            "lat": 55.741989
        }
    },
    {
        "id": 2644642,
        "name": "Leiston",
        "country": "GB",
        "coord": {
            "lon": 1.57757,
            "lat": 52.206108
        }
    },
    {
        "id": 2656402,
        "name": "Banff",
        "country": "GB",
        "coord": {
            "lon": -2.52964,
            "lat": 57.664768
        }
    },
    {
        "id": 2640140,
        "name": "Ponders End",
        "country": "GB",
        "coord": {
            "lon": -0.04652,
            "lat": 51.644501
        }
    },
    {
        "id": 6457407,
        "name": "Argyll and Bute",
        "country": "GB",
        "coord": {
            "lon": -5.43679,
            "lat": 56.03693
        }
    },
    {
        "id": 2643312,
        "name": "Lymington",
        "country": "GB",
        "coord": {
            "lon": -1.5443,
            "lat": 50.757671
        }
    },
    {
        "id": 2649951,
        "name": "Erdington",
        "country": "GB",
        "coord": {
            "lon": -1.81667,
            "lat": 52.533329
        }
    },
    {
        "id": 2645486,
        "name": "Kingsbridge",
        "country": "GB",
        "coord": {
            "lon": -3.77638,
            "lat": 50.284512
        }
    },
    {
        "id": 7303904,
        "name": "Milton of Edradour",
        "country": "GB",
        "coord": {
            "lon": -3.70173,
            "lat": 56.701801
        }
    },
    {
        "id": 7298868,
        "name": "Coedffranc",
        "country": "GB",
        "coord": {
            "lon": -3.86079,
            "lat": 51.637131
        }
    },
    {
        "id": 2649955,
        "name": "Epworth",
        "country": "GB",
        "coord": {
            "lon": -0.82399,
            "lat": 53.52602
        }
    },
    {
        "id": 2650800,
        "name": "Dumbleton",
        "country": "GB",
        "coord": {
            "lon": -1.97605,
            "lat": 52.022148
        }
    },
    {
        "id": 2650077,
        "name": "Elmers End",
        "country": "GB",
        "coord": {
            "lon": -0.04729,
            "lat": 51.398079
        }
    },
    {
        "id": 2645463,
        "name": "Kingskettle",
        "country": "GB",
        "coord": {
            "lon": -3.11693,
            "lat": 56.26215
        }
    },
    {
        "id": 2642932,
        "name": "Maryculter",
        "country": "GB",
        "coord": {
            "lon": -2.23738,
            "lat": 57.082859
        }
    },
    {
        "id": 7290549,
        "name": "Cotswold District",
        "country": "GB",
        "coord": {
            "lon": -1.968,
            "lat": 51.84462
        }
    },
    {
        "id": 2650500,
        "name": "East Barsham",
        "country": "GB",
        "coord": {
            "lon": 0.84792,
            "lat": 52.869091
        }
    },
    {
        "id": 2652006,
        "name": "Cretingham",
        "country": "GB",
        "coord": {
            "lon": 1.25823,
            "lat": 52.19569
        }
    },
    {
        "id": 2642855,
        "name": "Meadowbank",
        "country": "GB",
        "coord": {
            "lon": -2.51667,
            "lat": 53.716671
        }
    },
    {
        "id": 2655838,
        "name": "Berrow",
        "country": "GB",
        "coord": {
            "lon": -3.00861,
            "lat": 51.264721
        }
    },
    {
        "id": 7294421,
        "name": "Southsea",
        "country": "GB",
        "coord": {
            "lon": -1.09262,
            "lat": 50.783039
        }
    },
    {
        "id": 2639996,
        "name": "Portsmouth",
        "country": "GB",
        "coord": {
            "lon": -1.09125,
            "lat": 50.798988
        }
    },
    {
        "id": 7298244,
        "name": "Kirmington",
        "country": "GB",
        "coord": {
            "lon": -0.33325,
            "lat": 53.577202
        }
    },
    {
        "id": 7284876,
        "name": "Heathrow",
        "country": "GB",
        "coord": {
            "lon": -0.4529,
            "lat": 51.4673
        }
    },
    {
        "id": 2633553,
        "name": "Workington",
        "country": "GB",
        "coord": {
            "lon": -3.54413,
            "lat": 54.642502
        }
    },
    {
        "id": 2633765,
        "name": "Wishaw",
        "country": "GB",
        "coord": {
            "lon": -3.91667,
            "lat": 55.76667
        }
    },
    {
        "id": 7294555,
        "name": "Alderley Edge",
        "country": "GB",
        "coord": {
            "lon": -2.23336,
            "lat": 53.304371
        }
    },
    {
        "id": 7295223,
        "name": "Halebank",
        "country": "GB",
        "coord": {
            "lon": -2.78873,
            "lat": 53.345982
        }
    },
    {
        "id": 2634096,
        "name": "Whitehaven",
        "country": "GB",
        "coord": {
            "lon": -3.58412,
            "lat": 54.548969
        }
    },
    {
        "id": 2648772,
        "name": "Gateshead",
        "country": "GB",
        "coord": {
            "lon": -1.66667,
            "lat": 54.933331
        }
    },
    {
        "id": 7298561,
        "name": "Lamesley",
        "country": "GB",
        "coord": {
            "lon": -1.6191,
            "lat": 54.907181
        }
    },
    {
        "id": 2634155,
        "name": "Whickham",
        "country": "GB",
        "coord": {
            "lon": -1.67635,
            "lat": 54.94561
        }
    },
    {
        "id": 3333191,
        "name": "Borough of Sandwell",
        "country": "GB",
        "coord": {
            "lon": -2,
            "lat": 52.5
        }
    },
    {
        "id": 7292341,
        "name": "Brampton Bierlow",
        "country": "GB",
        "coord": {
            "lon": -1.38407,
            "lat": 53.491951
        }
    },
    {
        "id": 7290559,
        "name": "Havant District",
        "country": "GB",
        "coord": {
            "lon": -0.9892,
            "lat": 50.83987
        }
    },
    {
        "id": 3333213,
        "name": "Borough of Walsall",
        "country": "GB",
        "coord": {
            "lon": -2,
            "lat": 52.583328
        }
    },
    {
        "id": 2634864,
        "name": "Wallsend",
        "country": "GB",
        "coord": {
            "lon": -1.53397,
            "lat": 54.991112
        }
    },
    {
        "id": 3333190,
        "name": "City and Borough of Salford",
        "country": "GB",
        "coord": {
            "lon": -2.33333,
            "lat": 53.5
        }
    },
    {
        "id": 7301607,
        "name": "Carrington",
        "country": "GB",
        "coord": {
            "lon": -2.38954,
            "lat": 53.42535
        }
    },
    {
        "id": 2635269,
        "name": "Tynemouth",
        "country": "GB",
        "coord": {
            "lon": -1.42559,
            "lat": 55.017879
        }
    },
    {
        "id": 3333210,
        "name": "Borough of Torbay",
        "country": "GB",
        "coord": {
            "lon": -3.55785,
            "lat": 50.451599
        }
    },
    {
        "id": 2635762,
        "name": "Tiverton",
        "country": "GB",
        "coord": {
            "lon": -3.48333,
            "lat": 50.900002
        }
    },
    {
        "id": 2636005,
        "name": "Thornaby-on-Tees",
        "country": "GB",
        "coord": {
            "lon": -1.3,
            "lat": 54.533329
        }
    },
    {
        "id": 2636132,
        "name": "Teignmouth",
        "country": "GB",
        "coord": {
            "lon": -3.49637,
            "lat": 50.54768
        }
    },
    {
        "id": 3333207,
        "name": "Borough of Swindon",
        "country": "GB",
        "coord": {
            "lon": -1.75,
            "lat": 51.583328
        }
    },
    {
        "id": 7290649,
        "name": "Stratford-on-Avon District",
        "country": "GB",
        "coord": {
            "lon": -1.59539,
            "lat": 52.161331
        }
    },
    {
        "id": 2636767,
        "name": "Stourport-on-Severn",
        "country": "GB",
        "coord": {
            "lon": -2.26667,
            "lat": 52.349998
        }
    },
    {
        "id": 2637104,
        "name": "Stamford",
        "country": "GB",
        "coord": {
            "lon": -0.48333,
            "lat": 52.650002
        }
    },
    {
        "id": 7293143,
        "name": "Spennymoor",
        "country": "GB",
        "coord": {
            "lon": -1.62032,
            "lat": 54.693321
        }
    },
    {
        "id": 3333199,
        "name": "Borough of South Tyneside",
        "country": "GB",
        "coord": {
            "lon": -1.41667,
            "lat": 54.950001
        }
    },