[
    {
        "id": 384848,
        "name": "Qarah Gawl al \u2018Uly\u0101",
        "country": "IQ",
        "coord": {
            "lon": 45.6325,
            "lat": 35.353889
        }
    },
    {
        "id": 448961,
        "name": "Tall \u2018Al\u0101w\u012b",
        "country": "IQ",
        "coord": {
            "lon": 44.552891,
            "lat": 31.59358
        }
    },
    {
        "id": 98862,
        "name": "Mu\u1e29\u0101faz\u0327at an Najaf",
        "country": "IQ",
        "coord": {
            "lon": 43.833328,
            "lat": 31.25
        }
    },
    {
        "id": 94589,
        "name": "Ra\u1e29bah",
        "country": "IQ",
        "coord": {
            "lon": 44.314999,
            "lat": 31.73357
        }
    },
    {
        "id": 94823,
        "name": "Mu\u1e29\u0101faz\u0327at Karbal\u0101\u2019",
        "country": "IQ",
        "coord": {
            "lon": 43.833328,
            "lat": 32.5
        }
    },
    {
        "id": 6780871,
        "name": "\u1e28asan Y\u016bsuf",
        "country": "IQ",
        "coord": {
            "lon": 44.273621,
            "lat": 32.479019
        }
    },
    {
        "id": 89824,
        "name": "Umm Qasr",
        "country": "IQ",
        "coord": {
            "lon": 47.916771,
            "lat": 30.040541
        }
    },
    {
        "id": 6769334,
        "name": "Al Fal\u0101\u1e29\u012byah",
        "country": "IQ",
        "coord": {
            "lon": 45.841068,
            "lat": 32.508221
        }
    },
    {
        "id": 96309,
        "name": "Hadithah",
        "country": "IQ",
        "coord": {
            "lon": 42.378059,
            "lat": 34.139721
        }
    },
    {
        "id": 97783,
        "name": "Bayji",
        "country": "IQ",
        "coord": {
            "lon": 43.487,
            "lat": 34.931141
        }
    },
    {
        "id": 99439,
        "name": "Nahiyat al Fuhud",
        "country": "IQ",
        "coord": {
            "lon": 46.722778,
            "lat": 30.969721
        }
    },
    {
        "id": 98465,
        "name": "Mu\u1e29\u0101faz\u0327at as Sulaym\u0101n\u012byah",
        "country": "IQ",
        "coord": {
            "lon": 45.5,
            "lat": 35.666668
        }
    },
    {
        "id": 99022,
        "name": "Mu\u1e29\u0101faz\u0327at al Q\u0101dis\u012byah",
        "country": "IQ",
        "coord": {
            "lon": 45,
            "lat": 31.58333
        }
    },
    {
        "id": 89693,
        "name": "Muhafazat Wasit",
        "country": "IQ",
        "coord": {
            "lon": 45.416672,
            "lat": 32.75
        }
    },
    {
        "id": 6759629,
        "name": "Hawr az Zahrah",
        "country": "IQ",
        "coord": {
            "lon": 45.50835,
            "lat": 32.323009
        }
    },
    {
        "id": 6849114,
        "name": "Khu\u1e11ayr Shah\u0101b",
        "country": "IQ",
        "coord": {
            "lon": 43.284599,
            "lat": 34.585571
        }
    },
    {
        "id": 98860,
        "name": "An Najaf al Ashraf",
        "country": "IQ",
        "coord": {
            "lon": 44.33976,
            "lat": 31.998541
        }
    },
    {
        "id": 95788,
        "name": "Hit",
        "country": "IQ",
        "coord": {
            "lon": 42.825089,
            "lat": 33.64159
        }
    },
    {
        "id": 97417,
        "name": "Chamchamal",
        "country": "IQ",
        "coord": {
            "lon": 44.831669,
            "lat": 35.53653
        }
    },
    {
        "id": 99237,
        "name": "Republic of Iraq",
        "country": "IQ",
        "coord": {
            "lon": 44,
            "lat": 33
        }
    },
    {
        "id": 92873,
        "name": "Niskah Jaw",
        "country": "IQ",
        "coord": {
            "lon": 45.648056,
            "lat": 35.353333
        }
    },
    {
        "id": 94889,
        "name": "K\u0101n\u012b M\u012br",
        "country": "IQ",
        "coord": {
            "lon": 45.674999,
            "lat": 35.310833
        }
    },
    {
        "id": 92244,
        "name": "Q\u0101zaw al \u2018Uly\u0101",
        "country": "IQ",
        "coord": {
            "lon": 45.692501,
            "lat": 35.338333
        }
    },
    {
        "id": 384597,
        "name": "Charb\u016bkh",
        "country": "IQ",
        "coord": {
            "lon": 45.712223,
            "lat": 35.315834
        }
    },
    {
        "id": 94796,
        "name": "Kar\u012bm \u0100wah",
        "country": "IQ",
        "coord": {
            "lon": 45.733334,
            "lat": 35.299999
        }
    },
    {
        "id": 94932,
        "name": "K\u0101n\u012b Kawah Jab\u016bkh",
        "country": "IQ",
        "coord": {
            "lon": 45.726665,
            "lat": 35.31028
        }
    },
    {
        "id": 384598,
        "name": "Mu\u1e29ammad \u2018Az\u012bz",
        "country": "IQ",
        "coord": {
            "lon": 45.731945,
            "lat": 35.325279
        }
    },
    {
        "id": 94931,
        "name": "K\u0101n\u012b Kawah al Qad\u012bmah",
        "country": "IQ",
        "coord": {
            "lon": 45.743889,
            "lat": 35.302502
        }
    },
    {
        "id": 6686317,
        "name": "-",
        "country": "IQ",
        "coord": {
            "lon": 45.9753,
            "lat": 35.5779
        }
    },
    {
        "id": 99596,
        "name": "Alan",
        "country": "IQ",
        "coord": {
            "lon": 45.776001,
            "lat": 35.290001
        }
    },
    {
        "id": 417262,
        "name": "Qalwazah \u2018Uly\u0101",
        "country": "IQ",
        "coord": {
            "lon": 45.7855,
            "lat": 35.253201
        }
    },
    {
        "id": 94964,
        "name": "K\u0101n\u012b Bard\u012bnah",
        "country": "IQ",
        "coord": {
            "lon": 45.808201,
            "lat": 35.239498
        }
    },
    {
        "id": 417256,
        "name": "K\u016bl\u0101n",
        "country": "IQ",
        "coord": {
            "lon": 45.7855,
            "lat": 35.209099
        }
    },
    {
        "id": 89977,
        "name": "Wuluwr",
        "country": "IQ",
        "coord": {
            "lon": 45.749722,
            "lat": 35.115002
        }
    },
    {
        "id": 96965,
        "name": "Mu\u1e29\u0101faz\u0327at Diy\u0101l\u00e1",
        "country": "IQ",
        "coord": {
            "lon": 45,
            "lat": 34
        }
    },
    {
        "id": 384823,
        "name": "Z\u0101lah N\u0101w",
        "country": "IQ",
        "coord": {
            "lon": 45.710835,
            "lat": 35.084442
        }
    },
    {
        "id": 384077,
        "name": "N\u0101wday",
        "country": "IQ",
        "coord": {
            "lon": 45.718334,
            "lat": 35.022499
        }
    },
    {
        "id": 98227,
        "name": "Mu\u1e29\u0101faz\u0327at B\u0101bil",
        "country": "IQ",
        "coord": {
            "lon": 44.583332,
            "lat": 32.666668
        }
    },
    {
        "id": 99308,
        "name": "\u2018Al\u012b al A\u1e29mad",
        "country": "IQ",
        "coord": {
            "lon": 44.049999,
            "lat": 33.066666
        }
    },
    {
        "id": 446658,
        "name": "B\u0101zj\u012b",
        "country": "IQ",
        "coord": {
            "lon": 45.5075,
            "lat": 35.683887
        }
    },
    {
        "id": 97572,
        "name": "Bwz\u0101n",
        "country": "IQ",
        "coord": {
            "lon": 45.966667,
            "lat": 35.566666
        }
    },
    {
        "id": 6835394,
        "name": "\u2018Alw\u0101n Mu\u1e29ammad",
        "country": "IQ",
        "coord": {
            "lon": 45.00959,
            "lat": 33.999084
        }
    },
    {
        "id": 89341,
        "name": "Mu\u1e29\u0101faz\u0327at al Ba\u015frah",
        "country": "IQ",
        "coord": {
            "lon": 47.25,
            "lat": 30.33333
        }
    },
    {
        "id": 98689,
        "name": "Ar Rumaylah",
        "country": "IQ",
        "coord": {
            "lon": 47.34972,
            "lat": 30.27417
        }
    },
    {
        "id": 99536,
        "name": "Al Barjis\u012byah",
        "country": "IQ",
        "coord": {
            "lon": 47.566669,
            "lat": 30.35
        }
    },
    {
        "id": 99032,
        "name": "Mu\u1e29\u0101faz\u0327at al Muthann\u00e1",
        "country": "IQ",
        "coord": {
            "lon": 45,
            "lat": 30.5
        }
    },
    {
        "id": 95308,
        "name": "Jal\u012bb Shih\u0101b",
        "country": "IQ",
        "coord": {
            "lon": 46.183331,
            "lat": 30.41667
        }
    },
    {
        "id": 93540,
        "name": "Mu\u1e29\u0101faz\u0327at Mays\u0101n",
        "country": "IQ",
        "coord": {
            "lon": 47,
            "lat": 32
        }
    },
    {
        "id": 6772182,
        "name": "\u1e28aw\u012bl\u012byah",
        "country": "IQ",
        "coord": {
            "lon": 47.02256,
            "lat": 31.49262
        }
    },
    {
        "id": 98180,
        "name": "Mu\u1e29\u0101faz\u0327at Baghd\u0101d",
        "country": "IQ",
        "coord": {
            "lon": 44.25,
            "lat": 33.133331
        }
    },
    {
        "id": 99914,
        "name": "Ab\u016b Mu\u1e29ammad",
        "country": "IQ",
        "coord": {
            "lon": 44.116669,
            "lat": 33.166672
        }
    },
    {
        "id": 92628,
        "name": "Qal\u2018at as S\u0101dah",
        "country": "IQ",
        "coord": {
            "lon": 44.157219,
            "lat": 33.161388
        }
    },
    {
        "id": 99592,
        "name": "Mu\u1e29\u0101faz\u0327at al Anb\u0101r",
        "country": "IQ",
        "coord": {
            "lon": 41.75,
            "lat": 33
        }
    },
    {
        "id": 435805,
        "name": "Qaryat al \u2018Ank\u016br",
        "country": "IQ",
        "coord": {
            "lon": 43.42918,
            "lat": 33.220909
        }
    },
    {
        "id": 448779,
        "name": "Qaryat al Majarrah",
        "country": "IQ",
        "coord": {
            "lon": 43.510658,
            "lat": 33.198212
        }
    },
    {
        "id": 6798467,
        "name": "Saw\u1e29 al Ghawr",
        "country": "IQ",
        "coord": {
            "lon": 43.10643,
            "lat": 33.19656
        }
    },
    {
        "id": 96269,
        "name": "\u2018Arab \u1e28asan as Suhayl",
        "country": "IQ",
        "coord": {
            "lon": 44.15752,
            "lat": 33.32304
        }
    },
    {
        "id": 96215,
        "name": "\u1e28\u0101jj Sall\u016bm",
        "country": "IQ",
        "coord": {
            "lon": 44.349171,
            "lat": 33.455349
        }
    },
    {
        "id": 6759153,
        "name": "\u2018Ayn al Arnab",
        "country": "IQ",
        "coord": {
            "lon": 42.462509,
            "lat": 33.605831
        }
    },
    {
        "id": 6806015,
        "name": "\u2018Abd Sha\u1e29\u1e29\u0101dh M\u016bs\u00e1",
        "country": "IQ",
        "coord": {
            "lon": 44.219349,
            "lat": 33.574348
        }
    },
    {
        "id": 6928117,
        "name": "Al Qaryat al \u2018A\u015fir\u012byah",
        "country": "IQ",
        "coord": {
            "lon": 45.101299,
            "lat": 34.139439
        }
    },
    {
        "id": 6763613,
        "name": "Q\u016br al Asl\u0101f",
        "country": "IQ",
        "coord": {
            "lon": 41.305698,
            "lat": 34.217659
        }
    },
    {
        "id": 91823,
        "name": "Sa\u2018d All\u0101h Afand\u012b",
        "country": "IQ",
        "coord": {
            "lon": 45.333328,
            "lat": 34.316669
        }
    },
    {
        "id": 91695,
        "name": "Muhafazat Salah ad Din",
        "country": "IQ",
        "coord": {
            "lon": 43.650002,
            "lat": 34.5
        }
    },
    {
        "id": 6871491,
        "name": "Ma\u1e29m\u016bd \u2018Al\u012b",
        "country": "IQ",
        "coord": {
            "lon": 43.33181,
            "lat": 34.400398
        }
    },
    {
        "id": 6752102,
        "name": "Qaryat as S\u0101dah",
        "country": "IQ",
        "coord": {
            "lon": 44.295872,
            "lat": 34.559769
        }
    },
    {
        "id": 98410,
        "name": "Mu\u1e29\u0101faz\u0327at Kirk\u016bk",
        "country": "IQ",
        "coord": {
            "lon": 44.166672,
            "lat": 35.25
        }
    },
    {
        "id": 96165,
        "name": "Ham\u0101d\u012byah",
        "country": "IQ",
        "coord": {
            "lon": 44.21352,
            "lat": 35.277569
        }
    },
    {
        "id": 7330083,
        "name": "Nimrah Khamsah",
        "country": "IQ",
        "coord": {
            "lon": 45.24926,
            "lat": 35.315411
        }
    },
    {
        "id": 94930,
        "name": "K\u0101n\u012b Kh\u0101k\u012b",
        "country": "IQ",
        "coord": {
            "lon": 45.202579,
            "lat": 35.334702
        }
    },
    {
        "id": 6837283,
        "name": "Qaryat al Qah\u0101rah",
        "country": "IQ",
        "coord": {
            "lon": 43.098122,
            "lat": 35.452641
        }
    },
    {
        "id": 92877,
        "name": "Mu\u1e29\u0101faz\u0327at N\u012bnaw\u00e1",
        "country": "IQ",
        "coord": {
            "lon": 42.583328,
            "lat": 36.166672
        }
    },
    {
        "id": 6860746,
        "name": "Qaryat al Muftiy\u0101t",
        "country": "IQ",
        "coord": {
            "lon": 43.333359,
            "lat": 36.077229
        }
    },
    {
        "id": 95445,
        "name": "Mu\u1e29\u0101faz\u0327at Arb\u012bl",
        "country": "IQ",
        "coord": {
            "lon": 44,
            "lat": 36.166672
        }
    },
    {
        "id": 7018408,
        "name": "Ghaitli",
        "country": "IQ",
        "coord": {
            "lon": 43.578098,
            "lat": 36.145378
        }
    },
    {
        "id": 98299,
        "name": "Qaryat \u2018Ayn N\u0101\u015fir",
        "country": "IQ",
        "coord": {
            "lon": 43.070259,
            "lat": 36.125061
        }
    },
    {
        "id": 6786700,
        "name": "Tall Daghsh",
        "country": "IQ",
        "coord": {
            "lon": 42.240959,
            "lat": 36.138069
        }
    },
    {
        "id": 98756,
        "name": "Qaryat al \u2018Arb\u012bd",
        "country": "IQ",
        "coord": {
            "lon": 43.08062,
            "lat": 36.198238
        }
    },
    {
        "id": 445967,
        "name": "Q\u0101zaw as Sufl\u00e1",
        "country": "IQ",
        "coord": {
            "lon": 45.707722,
            "lat": 35.335911
        }
    },
    {
        "id": 99250,
        "name": "Al Im\u0101m",
        "country": "IQ",
        "coord": {
            "lon": 44.583328,
            "lat": 32.666672
        }
    },
    {
        "id": 98463,
        "name": "As Sulaymaniyah",
        "country": "IQ",
        "coord": {
            "lon": 45.437489,
            "lat": 35.561131
        }
    },
    {
        "id": 90150,
        "name": "Tikrit",
        "country": "IQ",
        "coord": {
            "lon": 43.678219,
            "lat": 34.607121
        }
    },
    {
        "id": 98182,
        "name": "Baghdad",
        "country": "IQ",
        "coord": {
            "lon": 44.400879,
            "lat": 33.34058
        }
    },
    {
        "id": 6201158,
        "name": "Sh\u016br\u012byah",
        "country": "IQ",
        "coord": {
            "lon": 44.39444,
            "lat": 33.342499
        }
    },
    {
        "id": 95446,
        "name": "Erbil",
        "country": "IQ",
        "coord": {
            "lon": 44.01062,
            "lat": 36.19257
        }
    },
    {
        "id": 6818134,
        "name": "Y\u016bsuf \u2018Al\u012b",
        "country": "IQ",
        "coord": {
            "lon": 44.032318,
            "lat": 32.601028
        }
    },
    {
        "id": 96966,
        "name": "D\u012bw\u0101n\u012byah",
        "country": "IQ",
        "coord": {
            "lon": 44.582218,
            "lat": 33.001389
        }
    },
    {
        "id": 99072,
        "name": "Mosul",
        "country": "IQ",
        "coord": {
            "lon": 43.118889,
            "lat": 36.334999
        }
    },
    {
        "id": 99532,
        "name": "Al Basrah",
        "country": "IQ",
        "coord": {
            "lon": 47.788849,
            "lat": 30.53488
        }
    },
    {
        "id": 388349,
        "name": "Al Basrat al Qadimah",
        "country": "IQ",
        "coord": {
            "lon": 47.814911,
            "lat": 30.49721
        }
    },
    {
        "id": 98530,
        "name": "As Samawah",
        "country": "IQ",
        "coord": {
            "lon": 45.294399,
            "lat": 31.33198
        }
    },
    {
        "id": 6776436,
        "name": "\u1e28aydar\u012byah",
        "country": "IQ",
        "coord": {
            "lon": 45.277351,
            "lat": 31.30686
        }
    },
    {
        "id": 94787,
        "name": "Kirkuk",
        "country": "IQ",
        "coord": {
            "lon": 44.39222,
            "lat": 35.46806
        }
    },
    {
        "id": 99347,
        "name": "Al Hillah",
        "country": "IQ",
        "coord": {
            "lon": 44.435261,
            "lat": 32.480141
        }
    },
    {
        "id": 6780885,
        "name": "\u1e28ayy al Jan\u0101\u2019in",
        "country": "IQ",
        "coord": {
            "lon": 44.429401,
            "lat": 32.475891
        }
    },
    {
        "id": 97019,
        "name": "Mu\u1e29\u0101faz\u0327at Dh\u012b Q\u0101r",
        "country": "IQ",
        "coord": {
            "lon": 46,
            "lat": 31
        }
    },
    {
        "id": 98854,
        "name": "An Nasiriyah",
        "country": "IQ",
        "coord": {
            "lon": 46.261021,
            "lat": 31.05205
        }
    },
    {
        "id": 93396,
        "name": "Mudarras",
        "country": "IQ",
        "coord": {
            "lon": 47.183331,
            "lat": 31.85
        }
    },
    {
        "id": 98717,
        "name": "Ar Ramadi",
        "country": "IQ",
        "coord": {
            "lon": 43.30584,
            "lat": 33.422569
        }
    },
    {
        "id": 435797,
        "name": "\u1e28ayy al \u2018Adl",
        "country": "IQ",
        "coord": {
            "lon": 43.300541,
            "lat": 33.418869
        }
    },
    {
        "id": 6871849,
        "name": "\u1e28ayy ash Sh\u012bsh\u012bn",
        "country": "IQ",
        "coord": {
            "lon": 43.687931,
            "lat": 34.593109
        }
    },
    {
        "id": 97270,
        "name": "Mu\u1e29\u0101faz\u0327at Dah\u016bk",
        "country": "IQ",
        "coord": {
            "lon": 43.25,
            "lat": 37
        }
    },
    {
        "id": 96994,
        "name": "Dahuk",
        "country": "IQ",
        "coord": {
            "lon": 42.99398,
            "lat": 36.869499
        }
    },
    {
        "id": 90552,
        "name": "Sulaym\u0101n\u012byah",
        "country": "IQ",
        "coord": {
            "lon": 42.381939,
            "lat": 34.149719
        }
    },
    {
        "id": 99454,
        "name": "Al Fallujah",
        "country": "IQ",
        "coord": {
            "lon": 43.77951,
            "lat": 33.353802
        }
    },
    {
        "id": 90026,
        "name": "Tozkhurmato",
        "country": "IQ",
        "coord": {
            "lon": 44.62994,
            "lat": 34.890461
        }
    },
    {
        "id": 99135,
        "name": "Al K\u016bfah",
        "country": "IQ",
        "coord": {
            "lon": 44.403332,
            "lat": 32.034721
        }
    },
    {
        "id": 7046940,
        "name": "K\u0101n\u012b \u2018Abd\u016b",
        "country": "IQ",
        "coord": {
            "lon": 41.84935,
            "lat": 36.30209
        }
    },
    {
        "id": 99762,
        "name": "Ad Diwaniyah",
        "country": "IQ",
        "coord": {
            "lon": 44.93063,
            "lat": 31.990511
        }
    },
    {
        "id": 97990,
        "name": "Baqubah",
        "country": "IQ",
        "coord": {
            "lon": 44.655449,
            "lat": 33.748459
        }
    },
    {
        "id": 92365,
        "name": "Qaryat B\u0101n\u012b M\u0101lik",
        "country": "IQ",
        "coord": {
            "lon": 47.700001,
            "lat": 30.566669
        }
    },
    {
        "id": 6860697,
        "name": "\u1e28ayy a\u0163 \u0162ayar\u0101n",
        "country": "IQ",
        "coord": {
            "lon": 43.143951,
            "lat": 36.32299
        }
    },
    {
        "id": 448955,
        "name": "Tall Raml",
        "country": "IQ",
        "coord": {
            "lon": 44.272221,
            "lat": 33.258331
        }
    },
    {
        "id": 447878,
        "name": "Tany",
        "country": "IQ",
        "coord": {
            "lon": 43.245869,
            "lat": 37.098679
        }
    },
    {
        "id": 89570,
        "name": "Zakhu",
        "country": "IQ",
        "coord": {
            "lon": 42.700081,
            "lat": 37.14817
        }
    },
    {
        "id": 90353,
        "name": "Qada Talkif",
        "country": "IQ",
        "coord": {
            "lon": 43.119171,
            "lat": 36.489441
        }
    },
    {
        "id": 90708,
        "name": "Sinah",
        "country": "IQ",
        "coord": {
            "lon": 43.03886,
            "lat": 36.809021
        }
    },
    {
        "id": 91597,
        "name": "Samarra",
        "country": "IQ",
        "coord": {
            "lon": 43.875622,
            "lat": 34.200958
        }
    },
    {
        "id": 91812,
        "name": "Nahiyat Saddat al Hindiyah",
        "country": "IQ",
        "coord": {
            "lon": 44.280281,
            "lat": 32.714722
        }
    },
    {
        "id": 92002,
        "name": "Rawanduz",
        "country": "IQ",
        "coord": {
            "lon": 44.531109,
            "lat": 36.61631
        }
    },
    {
        "id": 92004,
        "name": "Rawah",
        "country": "IQ",
        "coord": {
            "lon": 41.909302,
            "lat": 34.48164
        }
    },
    {
        "id": 92430,
        "name": "Qada al Hamdaniyah",
        "country": "IQ",
        "coord": {
            "lon": 43.37373,
            "lat": 36.271461
        }
    },
    {
        "id": 93709,
        "name": "Mandali",
        "country": "IQ",
        "coord": {
            "lon": 45.5541,
            "lat": 33.749859
        }
    },
    {
        "id": 94220,
        "name": "Koysinceq",
        "country": "IQ",
        "coord": {
            "lon": 44.627781,
            "lat": 36.082142
        }
    },
    {
        "id": 94298,
        "name": "Kifri",
        "country": "IQ",
        "coord": {
            "lon": 44.966099,
            "lat": 34.695869
        }
    },
    {
        "id": 94824,
        "name": "Karbala",
        "country": "IQ",
        "coord": {
            "lon": 44.024879,
            "lat": 32.616032
        }
    },
    {
        "id": 96205,
        "name": "Halabjah",
        "country": "IQ",
        "coord": {
            "lon": 45.986111,
            "lat": 35.17778
        }
    },
    {
        "id": 98012,
        "name": "Paynjuwayn",
        "country": "IQ",
        "coord": {
            "lon": 45.954102,
            "lat": 35.618301
        }
    },
    {
        "id": 98112,
        "name": "Balad",
        "country": "IQ",
        "coord": {
            "lon": 44.145309,
            "lat": 34.01638
        }
    },
    {
        "id": 98245,
        "name": "Az Zubayr",
        "country": "IQ",
        "coord": {
            "lon": 47.701141,
            "lat": 30.39447
        }
    },
    {
        "id": 98459,
        "name": "As Suwayrah",
        "country": "IQ",
        "coord": {
            "lon": 44.775829,
            "lat": 32.92556
        }
    },
    {
        "id": 98589,
        "name": "Nahiyat ash Shinafiyah",
        "country": "IQ",
        "coord": {
            "lon": 44.66016,
            "lat": 31.58737
        }
    },
    {
        "id": 98622,
        "name": "Ash Shatrah",
        "country": "IQ",
        "coord": {
            "lon": 46.174179,
            "lat": 31.411711
        }
    },
    {
        "id": 98629,
        "name": "Ash Shamiyah",
        "country": "IQ",
        "coord": {
            "lon": 44.599041,
            "lat": 31.963619
        }
    },
    {
        "id": 98677,
        "name": "Ar Rutbah",
        "country": "IQ",
        "coord": {
            "lon": 40.284821,
            "lat": 33.038071
        }
    },
    {
        "id": 98685,
        "name": "Ar Rumaythah",
        "country": "IQ",
        "coord": {
            "lon": 45.202461,
            "lat": 31.526291
        }
    },
    {
        "id": 98885,
        "name": "Anat al Qadimah",
        "country": "IQ",
        "coord": {
            "lon": 41.933102,
            "lat": 34.465889
        }
    },
    {
        "id": 99010,
        "name": "Imam Qasim",
        "country": "IQ",
        "coord": {
            "lon": 44.682812,
            "lat": 32.297989
        }
    },
    {
        "id": 99039,
        "name": "Al Musayyib",
        "country": "IQ",
        "coord": {
            "lon": 44.282509,
            "lat": 32.783321
        }
    },
    {
        "id": 99060,
        "name": "Al Mishkhab",
        "country": "IQ",
        "coord": {
            "lon": 44.49107,
            "lat": 31.804159
        }
    },
    {
        "id": 99062,
        "name": "Al Miqdadiyah",
        "country": "IQ",
        "coord": {
            "lon": 44.936939,
            "lat": 33.978611
        }
    },
    {
        "id": 99071,
        "name": "Al Mawsil al Jadidah",
        "country": "IQ",
        "coord": {
            "lon": 43.097771,
            "lat": 36.334641
        }
    },
    {
        "id": 99097,
        "name": "Al Majar al Kabir",
        "country": "IQ",
        "coord": {
            "lon": 47.175289,
            "lat": 31.572321
        }
    },
    {
        "id": 99131,
        "name": "Al Kut",
        "country": "IQ",
        "coord": {
            "lon": 45.819019,
            "lat": 32.514702
        }
    },
    {
        "id": 99169,
        "name": "Khalis",
        "country": "IQ",
        "coord": {
            "lon": 44.526371,
            "lat": 33.819962
        }
    },
    {
        "id": 99306,
        "name": "Ali al Gharbi",
        "country": "IQ",
        "coord": {
            "lon": 46.686371,
            "lat": 32.463261
        }
    },
    {
        "id": 99344,
        "name": "Al Hindiyah",
        "country": "IQ",
        "coord": {
            "lon": 44.2225,
            "lat": 32.543331
        }
    },
    {
        "id": 99350,
        "name": "Al Hayy",
        "country": "IQ",
        "coord": {
            "lon": 46.043301,
            "lat": 32.173489
        }
    },
    {
        "id": 99369,
        "name": "Al Harithah",
        "country": "IQ",
        "coord": {
            "lon": 47.720829,
            "lat": 30.718611
        }
    },
    {
        "id": 99434,
        "name": "Nahiyat Ghammas",
        "country": "IQ",
        "coord": {
            "lon": 44.619598,
            "lat": 31.743111
        }
    },
    {
        "id": 99446,
        "name": "Al Faw",
        "country": "IQ",
        "coord": {
            "lon": 48.474121,
            "lat": 29.977631
        }
    },
    {
        "id": 99548,
        "name": "Al Aziziyah",
        "country": "IQ",
        "coord": {
            "lon": 45.06163,
            "lat": 32.90583
        }
    },
    {
        "id": 99608,
        "name": "Al Amarah",
        "country": "IQ",
        "coord": {
            "lon": 47.139599,
            "lat": 31.840639
        }
    },
    {
        "id": 99738,
        "name": "Afak",
        "country": "IQ",
        "coord": {
            "lon": 45.250549,
            "lat": 32.068981
        }
    },
    {
        "id": 99759,
        "name": "Ad Dujayl",
        "country": "IQ",
        "coord": {
            "lon": 44.23444,
            "lat": 33.846668
        }
    },
    {
        "id": 100077,
        "name": "Abu Ghurayb",
        "country": "IQ",
        "coord": {
            "lon": 44.185001,
            "lat": 33.308331
        }
    },
    {
        "id": 448149,
        "name": "Sinjar",
        "country": "IQ",
        "coord": {
            "lon": 41.87542,
            "lat": 36.320919
        }
    },
    {
        "id": 7097617,
        "name": "Nahiyat Hiran",
        "country": "IQ",
        "coord": {
            "lon": 44.488152,
            "lat": 36.278992
        }
    },
    {
        "id": 7097618,
        "name": "Nahiyat Hiran",
        "country": "IQ",
        "coord": {
            "lon": 44.492828,
            "lat": 36.280079
        }
    },
    {
        "id": 7326104,
        "name": "Nahiyat Bahar",
        "country": "IQ",
        "coord": {
            "lon": 48.39769,
            "lat": 30.17864
        }
    },
    {
        "id": 7326105,
        "name": "Nahiyat Atbah",
        "country": "IQ",
        "coord": {
            "lon": 48.014381,
            "lat": 30.482929
        }
    },
    {
        "id": 7374646,
        "name": "Nahiyat Ali ash Sharqi",
        "country": "IQ",
        "coord": {
            "lon": 46.749279,
            "lat": 32.122871
        }
    }
]