[
    {
        "id": 1299298,
        "name": "Pya",
        "country": "MM",
        "coord": {
            "lon": 95.599998,
            "lat": 21.51667
        }
    },
    {
        "id": 1285941,
        "name": "Yahaungwa",
        "country": "MM",
        "coord": {
            "lon": 98.150002,
            "lat": 14.05
        }
    },
    {
        "id": 1294701,
        "name": "Tanaunghla",
        "country": "MM",
        "coord": {
            "lon": 95.51667,
            "lat": 20.48333
        }
    },
    {
        "id": 1292118,
        "name": "Thayetchin",
        "country": "MM",
        "coord": {
            "lon": 94.550003,
            "lat": 21.066669
        }
    },
    {
        "id": 1286764,
        "name": "W\u0101n Yamp\u0113ng",
        "country": "MM",
        "coord": {
            "lon": 99.366669,
            "lat": 21.16667
        }
    },
    {
        "id": 1318433,
        "name": "Kongm\u00f6ng",
        "country": "MM",
        "coord": {
            "lon": 97.449997,
            "lat": 22.549999
        }
    },
    {
        "id": 1292572,
        "name": "Thanbankyun",
        "country": "MM",
        "coord": {
            "lon": 97.133331,
            "lat": 24.15
        }
    },
    {
        "id": 1298480,
        "name": "Sagaing Division",
        "country": "MM",
        "coord": {
            "lon": 95.5,
            "lat": 23.5
        }
    },
    {
        "id": 1312356,
        "name": "Mahkawshan",
        "country": "MM",
        "coord": {
            "lon": 97.23333,
            "lat": 27.26667
        }
    },
    {
        "id": 1300466,
        "name": "Bago",
        "country": "MM",
        "coord": {
            "lon": 96.479721,
            "lat": 17.33667
        }
    },
    {
        "id": 1302439,
        "name": "Pakokku",
        "country": "MM",
        "coord": {
            "lon": 95.099998,
            "lat": 21.33333
        }
    },
    {
        "id": 1319539,
        "name": "Kayah State",
        "country": "MM",
        "coord": {
            "lon": 97.5,
            "lat": 19.25
        }
    },
    {
        "id": 1311871,
        "name": "Mandalay Division",
        "country": "MM",
        "coord": {
            "lon": 96,
            "lat": 21
        }
    },
    {
        "id": 1319481,
        "name": "Kayinzu",
        "country": "MM",
        "coord": {
            "lon": 95.133331,
            "lat": 18.48333
        }
    },
    {
        "id": 1297099,
        "name": "Shan State",
        "country": "MM",
        "coord": {
            "lon": 98,
            "lat": 22
        }
    },
    {
        "id": 1302015,
        "name": "P\u0101nghpak",
        "country": "MM",
        "coord": {
            "lon": 99.120277,
            "lat": 20.31222
        }
    },
    {
        "id": 1312604,
        "name": "Magway Division",
        "country": "MM",
        "coord": {
            "lon": 94.75,
            "lat": 20.5
        }
    },
    {
        "id": 1321702,
        "name": "Kachin State",
        "country": "MM",
        "coord": {
            "lon": 97.5,
            "lat": 26
        }
    },
    {
        "id": 1285871,
        "name": "Nyaungdon",
        "country": "MM",
        "coord": {
            "lon": 95.650002,
            "lat": 17.033331
        }
    },
    {
        "id": 1289828,
        "name": "Wakema",
        "country": "MM",
        "coord": {
            "lon": 95.183327,
            "lat": 16.6
        }
    },
    {
        "id": 1290374,
        "name": "Twante",
        "country": "MM",
        "coord": {
            "lon": 95.933327,
            "lat": 16.716669
        }
    },
    {
        "id": 1298911,
        "name": "Pyu",
        "country": "MM",
        "coord": {
            "lon": 96.433327,
            "lat": 18.48333
        }
    },
    {
        "id": 1299154,
        "name": "Pyay",
        "country": "MM",
        "coord": {
            "lon": 95.216667,
            "lat": 18.816669
        }
    },
    {
        "id": 1299237,
        "name": "Pyapon",
        "country": "MM",
        "coord": {
            "lon": 95.683327,
            "lat": 16.283331
        }
    },
    {
        "id": 1300969,
        "name": "Paungde",
        "country": "MM",
        "coord": {
            "lon": 95.5,
            "lat": 18.48333
        }
    },
    {
        "id": 1303406,
        "name": "Nyaunglebin",
        "country": "MM",
        "coord": {
            "lon": 96.73333,
            "lat": 17.950001
        }
    },
    {
        "id": 1308464,
        "name": "Mawlamyinegyunn",
        "country": "MM",
        "coord": {
            "lon": 95.26667,
            "lat": 16.383329
        }
    },
    {
        "id": 1309289,
        "name": "Minbu",
        "country": "MM",
        "coord": {
            "lon": 94.883331,
            "lat": 20.183331
        }
    },
    {
        "id": 1309937,
        "name": "Maymyo",
        "country": "MM",
        "coord": {
            "lon": 96.466667,
            "lat": 22.033331
        }
    },
    {
        "id": 1310120,
        "name": "Mawlaik",
        "country": "MM",
        "coord": {
            "lon": 94.416672,
            "lat": 23.633329
        }
    },
    {
        "id": 1312609,
        "name": "Magway",
        "country": "MM",
        "coord": {
            "lon": 94.916672,
            "lat": 20.15
        }
    },
    {
        "id": 1314042,
        "name": "Letpandan",
        "country": "MM",
        "coord": {
            "lon": 95.75,
            "lat": 17.783331
        }
    },
    {
        "id": 1317397,
        "name": "Kyaiklat",
        "country": "MM",
        "coord": {
            "lon": 95.73333,
            "lat": 16.433331
        }
    },
    {
        "id": 1317402,
        "name": "Kyaikkami",
        "country": "MM",
        "coord": {
            "lon": 97.567497,
            "lat": 16.08
        }
    },
    {
        "id": 1319533,
        "name": "Kayan",
        "country": "MM",
        "coord": {
            "lon": 96.563057,
            "lat": 16.90556
        }
    },
    {
        "id": 1327865,
        "name": "Union of Burma",
        "country": "MM",
        "coord": {
            "lon": 98,
            "lat": 22
        }
    },
    {
        "id": 1321850,
        "name": "Ayeyarwady Division",
        "country": "MM",
        "coord": {
            "lon": 95,
            "lat": 17
        }
    },
    {
        "id": 1290920,
        "name": "Tingyaung",
        "country": "MM",
        "coord": {
            "lon": 94.449997,
            "lat": 16.383329
        }
    },
    {
        "id": 1298822,
        "name": "Yangon Division",
        "country": "MM",
        "coord": {
            "lon": 96.166672,
            "lat": 17
        }
    },
    {
        "id": 1482099,
        "name": "Chaungbo",
        "country": "MM",
        "coord": {
            "lon": 96.096939,
            "lat": 16.503889
        }
    },
    {
        "id": 1480737,
        "name": "Inkyangon",
        "country": "MM",
        "coord": {
            "lon": 96.30722,
            "lat": 17.191389
        }
    },
    {
        "id": 1320233,
        "name": "Kayin State",
        "country": "MM",
        "coord": {
            "lon": 97.75,
            "lat": 17.5
        }
    },
    {
        "id": 1315047,
        "name": "Lakawdo",
        "country": "MM",
        "coord": {
            "lon": 97.576942,
            "lat": 18.119169
        }
    },
    {
        "id": 1296119,
        "name": "Singun",
        "country": "MM",
        "coord": {
            "lon": 96.033333,
            "lat": 21.58333
        }
    },
    {
        "id": 1310084,
        "name": "Mawnwe",
        "country": "MM",
        "coord": {
            "lon": 94.550003,
            "lat": 24.533331
        }
    },
    {
        "id": 1304138,
        "name": "Ninglum",
        "country": "MM",
        "coord": {
            "lon": 97.23333,
            "lat": 25.216669
        }
    },
    {
        "id": 1481825,
        "name": "Botataung",
        "country": "MM",
        "coord": {
            "lon": 96.16861,
            "lat": 16.772779
        }
    },
    {
        "id": 1481709,
        "name": "Mithwegon",
        "country": "MM",
        "coord": {
            "lon": 96.127777,
            "lat": 16.903891
        }
    },
    {
        "id": 1326149,
        "name": "Ekyigon",
        "country": "MM",
        "coord": {
            "lon": 95.98333,
            "lat": 21.683331
        }
    },
    {
        "id": 1298852,
        "name": "Rakhine State",
        "country": "MM",
        "coord": {
            "lon": 94.25,
            "lat": 19
        }
    },
    {
        "id": 1295765,
        "name": "Sittwe",
        "country": "MM",
        "coord": {
            "lon": 92.900002,
            "lat": 20.15
        }
    },
    {
        "id": 1307641,
        "name": "Myoma",
        "country": "MM",
        "coord": {
            "lon": 92.883331,
            "lat": 20.133329
        }
    },
    {
        "id": 1285173,
        "name": "Yenangyaung",
        "country": "MM",
        "coord": {
            "lon": 94.883331,
            "lat": 20.466669
        }
    },
    {
        "id": 1285899,
        "name": "Yamethin",
        "country": "MM",
        "coord": {
            "lon": 96.150002,
            "lat": 20.433331
        }
    },
    {
        "id": 1300463,
        "name": "Bago Division",
        "country": "MM",
        "coord": {
            "lon": 96.25,
            "lat": 18.25
        }
    },
    {
        "id": 1290596,
        "name": "Taungoo",
        "country": "MM",
        "coord": {
            "lon": 96.433327,
            "lat": 18.933331
        }
    },
    {
        "id": 1291193,
        "name": "Thongwa",
        "country": "MM",
        "coord": {
            "lon": 96.527779,
            "lat": 16.76194
        }
    },
    {
        "id": 1292037,
        "name": "Thayetmyo",
        "country": "MM",
        "coord": {
            "lon": 95.183327,
            "lat": 19.316669
        }
    },
    {
        "id": 1308528,
        "name": "Mon State",
        "country": "MM",
        "coord": {
            "lon": 97.25,
            "lat": 17
        }
    },
    {
        "id": 1292288,
        "name": "Thaton",
        "country": "MM",
        "coord": {
            "lon": 97.371391,
            "lat": 16.920561
        }
    },
    {
        "id": 1292313,
        "name": "Tharyarwady",
        "country": "MM",
        "coord": {
            "lon": 95.800003,
            "lat": 17.65
        }
    },
    {
        "id": 1292579,
        "name": "Thanatpin",
        "country": "MM",
        "coord": {
            "lon": 96.583328,
            "lat": 17.299999
        }
    },
    {
        "id": 1292580,
        "name": "Thanatpin",
        "country": "MM",
        "coord": {
            "lon": 96.303329,
            "lat": 17.211941
        }
    },
    {
        "id": 1293118,
        "name": "Tanintharyi Division",
        "country": "MM",
        "coord": {
            "lon": 99,
            "lat": 13
        }
    },
    {
        "id": 1293625,
        "name": "Dawei",
        "country": "MM",
        "coord": {
            "lon": 98.199997,
            "lat": 14.08333
        }
    },
    {
        "id": 1293960,
        "name": "Taunggyi",
        "country": "MM",
        "coord": {
            "lon": 97.033333,
            "lat": 20.783331
        }
    },
    {
        "id": 1294041,
        "name": "Taungdwingyi",
        "country": "MM",
        "coord": {
            "lon": 95.550003,
            "lat": 20.01667
        }
    },
    {
        "id": 1295395,
        "name": "Syriam",
        "country": "MM",
        "coord": {
            "lon": 96.237778,
            "lat": 16.772221
        }
    },
    {
        "id": 1296736,
        "name": "Shwebo",
        "country": "MM",
        "coord": {
            "lon": 95.699997,
            "lat": 22.566669
        }
    },
    {
        "id": 1298482,
        "name": "Sagaing",
        "country": "MM",
        "coord": {
            "lon": 95.979652,
            "lat": 21.8787
        }
    },
    {
        "id": 1298824,
        "name": "Rangoon",
        "country": "MM",
        "coord": {
            "lon": 96.156113,
            "lat": 16.805281
        }
    },
    {
        "id": 1298987,
        "name": "Pyinmana",
        "country": "MM",
        "coord": {
            "lon": 96.216667,
            "lat": 19.73333
        }
    },
    {
        "id": 1307741,
        "name": "Myitkyina",
        "country": "MM",
        "coord": {
            "lon": 97.400002,
            "lat": 25.383329
        }
    },
    {
        "id": 1307835,
        "name": "Myingyan",
        "country": "MM",
        "coord": {
            "lon": 95.383331,
            "lat": 21.466669
        }
    },
    {
        "id": 1308204,
        "name": "Myanaung",
        "country": "MM",
        "coord": {
            "lon": 95.316673,
            "lat": 18.283331
        }
    },
    {
        "id": 1308415,
        "name": "Mudon",
        "country": "MM",
        "coord": {
            "lon": 97.716393,
            "lat": 16.25778
        }
    },
    {
        "id": 1308465,
        "name": "Mawlamyine",
        "country": "MM",
        "coord": {
            "lon": 97.625557,
            "lat": 16.49139
        }
    },
    {
        "id": 1308522,
        "name": "Monywa",
        "country": "MM",
        "coord": {
            "lon": 95.133331,
            "lat": 22.116671
        }
    },
    {
        "id": 1308937,
        "name": "Mogok",
        "country": "MM",
        "coord": {
            "lon": 96.5,
            "lat": 22.91667
        }
    },
    {
        "id": 1309611,
        "name": "Myeik",
        "country": "MM",
        "coord": {
            "lon": 98.599998,
            "lat": 12.43333
        }
    },
    {
        "id": 1309793,
        "name": "Meiktila",
        "country": "MM",
        "coord": {
            "lon": 95.866669,
            "lat": 20.866671
        }
    },
    {
        "id": 1310362,
        "name": "Maubin",
        "country": "MM",
        "coord": {
            "lon": 95.650002,
            "lat": 16.73333
        }
    },
    {
        "id": 1310460,
        "name": "Martaban",
        "country": "MM",
        "coord": {
            "lon": 97.611107,
            "lat": 16.531389
        }
    },
    {
        "id": 1311874,
        "name": "Mandalay",
        "country": "MM",
        "coord": {
            "lon": 96.083588,
            "lat": 21.97473
        }
    },
    {
        "id": 1313479,
        "name": "Loikaw",
        "country": "MM",
        "coord": {
            "lon": 97.209442,
            "lat": 19.67417
        }
    },
    {
        "id": 1314759,
        "name": "Lashio",
        "country": "MM",
        "coord": {
            "lon": 97.75,
            "lat": 22.933331
        }
    },
    {
        "id": 1316703,
        "name": "Kyaukse",
        "country": "MM",
        "coord": {
            "lon": 96.133331,
            "lat": 21.6
        }
    },
    {
        "id": 1317375,
        "name": "Kyaikto",
        "country": "MM",
        "coord": {
            "lon": 97.01667,
            "lat": 17.299999
        }
    },
    {
        "id": 1320944,
        "name": "Kanbe",
        "country": "MM",
        "coord": {
            "lon": 96.001671,
            "lat": 16.70528
        }
    },
    {
        "id": 1325211,
        "name": "Hinthada",
        "country": "MM",
        "coord": {
            "lon": 95.466667,
            "lat": 17.633329
        }
    },
    {
        "id": 1327659,
        "name": "Chauk",
        "country": "MM",
        "coord": {
            "lon": 94.816673,
            "lat": 20.883329
        }
    },
    {
        "id": 1328121,
        "name": "Bogale",
        "country": "MM",
        "coord": {
            "lon": 95.400002,
            "lat": 16.283331
        }
    },
    {
        "id": 1328218,
        "name": "Bhamo",
        "country": "MM",
        "coord": {
            "lon": 97.23333,
            "lat": 24.26667
        }
    },
    {
        "id": 1328421,
        "name": "Pathein",
        "country": "MM",
        "coord": {
            "lon": 94.73333,
            "lat": 16.783331
        }
    },
    {
        "id": 1329239,
        "name": "Myaydo",
        "country": "MM",
        "coord": {
            "lon": 95.216667,
            "lat": 19.366671
        }
    },
    {
        "id": 6611854,
        "name": "Nay Pyi Taw",
        "country": "MM",
        "coord": {
            "lon": 96.129723,
            "lat": 19.745001
        }
    },
    {
        "id": 1302849,
        "name": "Hpa-an",
        "country": "MM",
        "coord": {
            "lon": 97.633331,
            "lat": 16.89056
        }
    },
    {
        "id": 1325443,
        "name": "Hakha",
        "country": "MM",
        "coord": {
            "lon": 93.616669,
            "lat": 22.65
        }
    },
    {
        "id": 1326105,
        "name": "Falam",
        "country": "MM",
        "coord": {
            "lon": 93.683327,
            "lat": 22.91667
        }
    }
]