[
    {
        "id": 1037370,
        "name": "Mocimboa",
        "country": "MZ",
        "coord": {
            "lon": 40.349998,
            "lat": -11.31667
        }
    },
    {
        "id": 1085582,
        "name": "Aldeia Chivungo",
        "country": "MZ",
        "coord": {
            "lon": 32.458061,
            "lat": -15.28611
        }
    },
    {
        "id": 1047925,
        "name": "Comaxinda",
        "country": "MZ",
        "coord": {
            "lon": 33.421108,
            "lat": -14.47889
        }
    },
    {
        "id": 1030006,
        "name": "Prov\u00edncia de Niassa",
        "country": "MZ",
        "coord": {
            "lon": 37,
            "lat": -13
        }
    },
    {
        "id": 1086131,
        "name": "Aldeia Nacapa",
        "country": "MZ",
        "coord": {
            "lon": 37.386669,
            "lat": -13.42833
        }
    },
    {
        "id": 1039617,
        "name": "Mavalane \u201dA\u201d",
        "country": "MZ",
        "coord": {
            "lon": 32.578331,
            "lat": -25.92444
        }
    },
    {
        "id": 1040938,
        "name": "Manjacaze",
        "country": "MZ",
        "coord": {
            "lon": 33.882778,
            "lat": -24.71167
        }
    },
    {
        "id": 1026010,
        "name": "Prov\u00edncia de Tete",
        "country": "MZ",
        "coord": {
            "lon": 33,
            "lat": -15.5
        }
    },
    {
        "id": 1039000,
        "name": "Meidinde",
        "country": "MZ",
        "coord": {
            "lon": 34.98278,
            "lat": -17.227221
        }
    },
    {
        "id": 1105845,
        "name": "Cidade de Maputo",
        "country": "MZ",
        "coord": {
            "lon": 32.589169,
            "lat": -25.965281
        }
    },
    {
        "id": 1040652,
        "name": "Maputo",
        "country": "MZ",
        "coord": {
            "lon": 32.589169,
            "lat": -25.965281
        }
    },
    {
        "id": 1089913,
        "name": "Benfica",
        "country": "MZ",
        "coord": {
            "lon": 32.565281,
            "lat": -25.895281
        }
    },
    {
        "id": 1088155,
        "name": "Mutuali",
        "country": "MZ",
        "coord": {
            "lon": 37.00444,
            "lat": -14.87056
        }
    },
    {
        "id": 1036973,
        "name": "Republic of Mozambique",
        "country": "MZ",
        "coord": {
            "lon": 35,
            "lat": -18.25
        }
    },
    {
        "id": 1026634,
        "name": "Sumane",
        "country": "MZ",
        "coord": {
            "lon": 35.25972,
            "lat": -13.25333
        }
    },
    {
        "id": 1026014,
        "name": "Tete",
        "country": "MZ",
        "coord": {
            "lon": 33.58667,
            "lat": -16.156389
        }
    },
    {
        "id": 1024312,
        "name": "Prov\u00edncia de Zamb\u00e9zia",
        "country": "MZ",
        "coord": {
            "lon": 37,
            "lat": -17
        }
    },
    {
        "id": 1028434,
        "name": "Quelimane",
        "country": "MZ",
        "coord": {
            "lon": 36.888329,
            "lat": -17.878611
        }
    },
    {
        "id": 1040947,
        "name": "Prov\u00edncia de Manica",
        "country": "MZ",
        "coord": {
            "lon": 33.5,
            "lat": -19
        }
    },
    {
        "id": 1049261,
        "name": "Chimoio",
        "country": "MZ",
        "coord": {
            "lon": 33.48333,
            "lat": -19.11639
        }
    },
    {
        "id": 1033354,
        "name": "Prov\u00edncia de Nampula",
        "country": "MZ",
        "coord": {
            "lon": 39,
            "lat": -15
        }
    },
    {
        "id": 1035025,
        "name": "Cidade de Nacala",
        "country": "MZ",
        "coord": {
            "lon": 40.672779,
            "lat": -14.54278
        }
    },
    {
        "id": 1033356,
        "name": "Nampula",
        "country": "MZ",
        "coord": {
            "lon": 39.266602,
            "lat": -15.11646
        }
    },
    {
        "id": 1026804,
        "name": "Prov\u00edncia de Sofala",
        "country": "MZ",
        "coord": {
            "lon": 34.928612,
            "lat": -19.764721
        }
    },
    {
        "id": 1052373,
        "name": "Beira",
        "country": "MZ",
        "coord": {
            "lon": 34.83889,
            "lat": -19.843611
        }
    },
    {
        "id": 1046058,
        "name": "Prov\u00edncia de Gaza",
        "country": "MZ",
        "coord": {
            "lon": 33,
            "lat": -23.5
        }
    },
    {
        "id": 1024552,
        "name": "Xai-Xai",
        "country": "MZ",
        "coord": {
            "lon": 33.644169,
            "lat": -25.051941
        }
    },
    {
        "id": 1037807,
        "name": "Miceti",
        "country": "MZ",
        "coord": {
            "lon": 40.5,
            "lat": -12.95
        }
    },
    {
        "id": 1045110,
        "name": "Prov\u00edncia de Inhambane",
        "country": "MZ",
        "coord": {
            "lon": 34.5,
            "lat": -23
        }
    },
    {
        "id": 1045114,
        "name": "Inhambane",
        "country": "MZ",
        "coord": {
            "lon": 35.383331,
            "lat": -23.865
        }
    },
    {
        "id": 1100188,
        "name": "Dami\u00e3o",
        "country": "MZ",
        "coord": {
            "lon": 35.315281,
            "lat": -22.022779
        }
    },
    {
        "id": 1027832,
        "name": "Rupia",
        "country": "MZ",
        "coord": {
            "lon": 33.645,
            "lat": -16.101391
        }
    },
    {
        "id": 1043298,
        "name": "Lu\u00edee",
        "country": "MZ",
        "coord": {
            "lon": 33.176392,
            "lat": -15.90389
        }
    },
    {
        "id": 1049896,
        "name": "Chibobar",
        "country": "MZ",
        "coord": {
            "lon": 40.51667,
            "lat": -12.98333
        }
    },
    {
        "id": 1051823,
        "name": "Prov\u00edncia de Cabo Delgado",
        "country": "MZ",
        "coord": {
            "lon": 39,
            "lat": -12.5
        }
    },
    {
        "id": 1085237,
        "name": "Mitamba",
        "country": "MZ",
        "coord": {
            "lon": 40.36972,
            "lat": -11.35972
        }
    },
    {
        "id": 1040649,
        "name": "Prov\u00edncia de Maputo",
        "country": "MZ",
        "coord": {
            "lon": 32.333328,
            "lat": -25.5
        }
    },
    {
        "id": 1043458,
        "name": "Luabo",
        "country": "MZ",
        "coord": {
            "lon": 36.105282,
            "lat": -18.39278
        }
    },
    {
        "id": 1103342,
        "name": "R\u00e9gulo Cassiano",
        "country": "MZ",
        "coord": {
            "lon": 35.40472,
            "lat": -23.87306
        }
    },
    {
        "id": 1040039,
        "name": "Matararique",
        "country": "MZ",
        "coord": {
            "lon": 33.461941,
            "lat": -19.14917
        }
    },
    {
        "id": 1047660,
        "name": "Cuamba",
        "country": "MZ",
        "coord": {
            "lon": 36.53722,
            "lat": -14.80306
        }
    },
    {
        "id": 1044159,
        "name": "Lactic\u012bnia",
        "country": "MZ",
        "coord": {
            "lon": 34.900002,
            "lat": -19.799999
        }
    },
    {
        "id": 1041510,
        "name": "Malatane",
        "country": "MZ",
        "coord": {
            "lon": 39.93306,
            "lat": -16.19194
        }
    },
    {
        "id": 1024696,
        "name": "Dondo",
        "country": "MZ",
        "coord": {
            "lon": 34.743061,
            "lat": -19.60944
        }
    },
    {
        "id": 1024701,
        "name": "Macia",
        "country": "MZ",
        "coord": {
            "lon": 33.098888,
            "lat": -25.026939
        }
    },
    {
        "id": 1028918,
        "name": "Pemba",
        "country": "MZ",
        "coord": {
            "lon": 40.51775,
            "lat": -12.97395
        }
    },
    {
        "id": 1037125,
        "name": "Montepuez",
        "country": "MZ",
        "coord": {
            "lon": 38.999722,
            "lat": -13.12556
        }
    },
    {
        "id": 1037390,
        "name": "Ilha de Mocambique",
        "country": "MZ",
        "coord": {
            "lon": 40.735828,
            "lat": -15.03417
        }
    },
    {
        "id": 1039536,
        "name": "Maxixe",
        "country": "MZ",
        "coord": {
            "lon": 35.347221,
            "lat": -23.85972
        }
    },
    {
        "id": 1039854,
        "name": "Matola",
        "country": "MZ",
        "coord": {
            "lon": 32.458889,
            "lat": -25.962219
        }
    },
    {
        "id": 1043893,
        "name": "Lichinga",
        "country": "MZ",
        "coord": {
            "lon": 35.240559,
            "lat": -13.31278
        }
    },
    {
        "id": 1048364,
        "name": "Chokwe",
        "country": "MZ",
        "coord": {
            "lon": 32.98333,
            "lat": -24.533331
        }
    },
    {
        "id": 1049861,
        "name": "Chibuto",
        "country": "MZ",
        "coord": {
            "lon": 33.53056,
            "lat": -24.68667
        }
    },
    {
        "id": 1052944,
        "name": "Antonio Enes",
        "country": "MZ",
        "coord": {
            "lon": 39.908611,
            "lat": -16.2325
        }
    }
]