[
    {
        "id": 3618029,
        "name": "Departamento de Le\u00f3n",
        "country": "NI",
        "coord": {
            "lon": -86.583328,
            "lat": 12.58333
        }
    },
    {
        "id": 3619548,
        "name": "El Papalote",
        "country": "NI",
        "coord": {
            "lon": -86.547997,
            "lat": 12.24806
        }
    },
    {
        "id": 3616253,
        "name": "Siuna",
        "country": "NI",
        "coord": {
            "lon": -84.777252,
            "lat": 13.73321
        }
    },
    {
        "id": 3617051,
        "name": "Departamento de Rivas",
        "country": "NI",
        "coord": {
            "lon": -85.75,
            "lat": 11.3
        }
    },
    {
        "id": 3620479,
        "name": "Cardenas",
        "country": "NI",
        "coord": {
            "lon": -85.508904,
            "lat": 11.19639
        }
    },
    {
        "id": 3620368,
        "name": "Departamento de Chontales",
        "country": "NI",
        "coord": {
            "lon": -85.166672,
            "lat": 12.08333
        }
    },
    {
        "id": 3618067,
        "name": "La Vainilla",
        "country": "NI",
        "coord": {
            "lon": -85.241661,
            "lat": 12.0129
        }
    },
    {
        "id": 3618928,
        "name": "Departamento de Jinotega",
        "country": "NI",
        "coord": {
            "lon": -85.583328,
            "lat": 13.75
        }
    },
    {
        "id": 3615877,
        "name": "Valle La Tejera",
        "country": "NI",
        "coord": {
            "lon": -86.001038,
            "lat": 13.06953
        }
    },
    {
        "id": 3617476,
        "name": "Republic of Nicaragua",
        "country": "NI",
        "coord": {
            "lon": -85,
            "lat": 13
        }
    },
    {
        "id": 3616234,
        "name": "Somotillo",
        "country": "NI",
        "coord": {
            "lon": -86.906448,
            "lat": 13.04328
        }
    },
    {
        "id": 3616781,
        "name": "San Jos\u00e9",
        "country": "NI",
        "coord": {
            "lon": -86.73333,
            "lat": 12.1
        }
    },
    {
        "id": 3617762,
        "name": "Departamento de Managua",
        "country": "NI",
        "coord": {
            "lon": -86.416672,
            "lat": 12
        }
    },
    {
        "id": 3617763,
        "name": "Managua",
        "country": "NI",
        "coord": {
            "lon": -86.250397,
            "lat": 12.13282
        }
    },
    {
        "id": 7019741,
        "name": "Barrio Santo Domingo",
        "country": "NI",
        "coord": {
            "lon": -86.266724,
            "lat": 12.15178
        }
    },
    {
        "id": 3617722,
        "name": "Departamento de Masaya",
        "country": "NI",
        "coord": {
            "lon": -86.166672,
            "lat": 12
        }
    },
    {
        "id": 3616064,
        "name": "Ticuantepe",
        "country": "NI",
        "coord": {
            "lon": -86.204933,
            "lat": 12.02263
        }
    },
    {
        "id": 3618030,
        "name": "Leon",
        "country": "NI",
        "coord": {
            "lon": -86.878036,
            "lat": 12.43787
        }
    },
    {
        "id": 3618336,
        "name": "Larreynaga",
        "country": "NI",
        "coord": {
            "lon": -86.57193,
            "lat": 12.67692
        }
    },
    {
        "id": 3617723,
        "name": "Masaya",
        "country": "NI",
        "coord": {
            "lon": -86.09417,
            "lat": 11.97444
        }
    },
    {
        "id": 3620380,
        "name": "Departamento de Chinandega",
        "country": "NI",
        "coord": {
            "lon": -87.083328,
            "lat": 12.83333
        }
    },
    {
        "id": 3620390,
        "name": "Chichigalpa",
        "country": "NI",
        "coord": {
            "lon": -87.027046,
            "lat": 12.57758
        }
    },
    {
        "id": 3617473,
        "name": "Nindiri",
        "country": "NI",
        "coord": {
            "lon": -86.121277,
            "lat": 12.00386
        }
    },
    {
        "id": 3620481,
        "name": "Departamento de Carazo",
        "country": "NI",
        "coord": {
            "lon": -86.25,
            "lat": 11.75
        }
    },
    {
        "id": 3618926,
        "name": "Jinotepe",
        "country": "NI",
        "coord": {
            "lon": -86.199028,
            "lat": 11.84962
        }
    },
    {
        "id": 3617707,
        "name": "Departamento de Matagalpa",
        "country": "NI",
        "coord": {
            "lon": -85.666672,
            "lat": 12.91667
        }
    },
    {
        "id": 3616311,
        "name": "S\u00e9baco",
        "country": "NI",
        "coord": {
            "lon": -86.096298,
            "lat": 12.85321
        }
    },
    {
        "id": 3617697,
        "name": "Mateare",
        "country": "NI",
        "coord": {
            "lon": -86.428093,
            "lat": 12.23512
        }
    },
    {
        "id": 3618546,
        "name": "La Gaveta",
        "country": "NI",
        "coord": {
            "lon": -87.155479,
            "lat": 12.63132
        }
    },
    {
        "id": 3620350,
        "name": "Ciudad Dario",
        "country": "NI",
        "coord": {
            "lon": -86.124023,
            "lat": 12.73143
        }
    },
    {
        "id": 3617470,
        "name": "Niquinohomo",
        "country": "NI",
        "coord": {
            "lon": -86.09446,
            "lat": 11.90518
        }
    },
    {
        "id": 3619193,
        "name": "Departamento de Estel\u00ed",
        "country": "NI",
        "coord": {
            "lon": -86.333328,
            "lat": 13.16667
        }
    },
    {
        "id": 3619194,
        "name": "Esteli",
        "country": "NI",
        "coord": {
            "lon": -86.353844,
            "lat": 13.09185
        }
    },
    {
        "id": 3617708,
        "name": "Matagalpa",
        "country": "NI",
        "coord": {
            "lon": -85.917473,
            "lat": 12.92559
        }
    },
    {
        "id": 3619135,
        "name": "Departamento de Granada",
        "country": "NI",
        "coord": {
            "lon": -85.916672,
            "lat": 11.83333
        }
    },
    {
        "id": 3619136,
        "name": "Granada",
        "country": "NI",
        "coord": {
            "lon": -85.956017,
            "lat": 11.92988
        }
    },
    {
        "id": 3617796,
        "name": "Departamento de Madriz",
        "country": "NI",
        "coord": {
            "lon": -86.416672,
            "lat": 13.5
        }
    },
    {
        "id": 3616232,
        "name": "Somoto",
        "country": "NI",
        "coord": {
            "lon": -86.582077,
            "lat": 13.48082
        }
    },
    {
        "id": 3617458,
        "name": "Departamento de Nueva Segovia",
        "country": "NI",
        "coord": {
            "lon": -86.166672,
            "lat": 13.7
        }
    },
    {
        "id": 3617448,
        "name": "Ocotal",
        "country": "NI",
        "coord": {
            "lon": -86.475159,
            "lat": 13.63208
        }
    },
    {
        "id": 3616035,
        "name": "Tipitapa",
        "country": "NI",
        "coord": {
            "lon": -86.097061,
            "lat": 12.19732
        }
    },
    {
        "id": 3620170,
        "name": "Diriamba",
        "country": "NI",
        "coord": {
            "lon": -86.238777,
            "lat": 11.85842
        }
    },
    {
        "id": 3617522,
        "name": "Nagarote",
        "country": "NI",
        "coord": {
            "lon": -86.564743,
            "lat": 12.26593
        }
    },
    {
        "id": 3618954,
        "name": "Jalapa",
        "country": "NI",
        "coord": {
            "lon": -86.123459,
            "lat": 13.92222
        }
    },
    {
        "id": 3616726,
        "name": "San Juan del Sur",
        "country": "NI",
        "coord": {
            "lon": -85.870491,
            "lat": 11.25292
        }
    },
    {
        "id": 3620298,
        "name": "Condega",
        "country": "NI",
        "coord": {
            "lon": -86.39846,
            "lat": 13.36502
        }
    },
    {
        "id": 3619394,
        "name": "El Salto",
        "country": "NI",
        "coord": {
            "lon": -85.386841,
            "lat": 12.1197
        }
    },
    {
        "id": 3828262,
        "name": "Ciudad Sandino",
        "country": "NI",
        "coord": {
            "lon": -86.34417,
            "lat": 12.15889
        }
    },
    {
        "id": 3830308,
        "name": "Regi\u00f3n Aut\u00f3noma Atl\u00e1ntico Sur",
        "country": "NI",
        "coord": {
            "lon": -84.25,
            "lat": 12.25
        }
    },
    {
        "id": 3620680,
        "name": "Bluefields",
        "country": "NI",
        "coord": {
            "lon": -83.763527,
            "lat": 12.01366
        }
    },
    {
        "id": 3616751,
        "name": "San Jos\u00e9 del Sur",
        "country": "NI",
        "coord": {
            "lon": -85.647614,
            "lat": 11.48705
        }
    },
    {
        "id": 3619451,
        "name": "El Realejo",
        "country": "NI",
        "coord": {
            "lon": -87.164658,
            "lat": 12.54307
        }
    },
    {
        "id": 3616358,
        "name": "Santo Domingo",
        "country": "NI",
        "coord": {
            "lon": -86.133331,
            "lat": 11.86667
        }
    },
    {
        "id": 3830307,
        "name": "Regi\u00f3n Aut\u00f3noma Atl\u00e1ntico Norte",
        "country": "NI",
        "coord": {
            "lon": -84.25,
            "lat": 14
        }
    },
    {
        "id": 3617154,
        "name": "Puerto Cabezas",
        "country": "NI",
        "coord": {
            "lon": -83.388817,
            "lat": 14.03507
        }
    },
    {
        "id": 3620673,
        "name": "Departamento de Boaco",
        "country": "NI",
        "coord": {
            "lon": -85.5,
            "lat": 12.5
        }
    },
    {
        "id": 3620544,
        "name": "Camoapa",
        "country": "NI",
        "coord": {
            "lon": -85.511574,
            "lat": 12.38386
        }
    },
    {
        "id": 3616597,
        "name": "San Rafael del Norte",
        "country": "NI",
        "coord": {
            "lon": -86.110588,
            "lat": 13.21248
        }
    },
    {
        "id": 3616594,
        "name": "San Rafael del Sur",
        "country": "NI",
        "coord": {
            "lon": -86.438393,
            "lat": 11.84854
        }
    },
    {
        "id": 3617565,
        "name": "Mozonte",
        "country": "NI",
        "coord": {
            "lon": -86.438408,
            "lat": 13.66034
        }
    },
    {
        "id": 3617109,
        "name": "Quilali",
        "country": "NI",
        "coord": {
            "lon": -86.026001,
            "lat": 13.56695
        }
    },
    {
        "id": 3619267,
        "name": "El Viejo",
        "country": "NI",
        "coord": {
            "lon": -87.167221,
            "lat": 12.6633
        }
    },
    {
        "id": 3617069,
        "name": "Rio Blanco",
        "country": "NI",
        "coord": {
            "lon": -85.223541,
            "lat": 12.93435
        }
    },
    {
        "id": 3616459,
        "name": "Santa Lucia",
        "country": "NI",
        "coord": {
            "lon": -85.710991,
            "lat": 12.53268
        }
    },
    {
        "id": 3618337,
        "name": "La Rosita",
        "country": "NI",
        "coord": {
            "lon": -84.403221,
            "lat": 13.92681
        }
    },
    {
        "id": 3618201,
        "name": "Las Mercedes",
        "country": "NI",
        "coord": {
            "lon": -86.173149,
            "lat": 12.1575
        }
    },
    {
        "id": 7019699,
        "name": "Barrio El Rodeo",
        "country": "NI",
        "coord": {
            "lon": -86.1651,
            "lat": 12.15454
        }
    },
    {
        "id": 3616914,
        "name": "San Caralampio",
        "country": "NI",
        "coord": {
            "lon": -86.102859,
            "lat": 11.77012
        }
    },
    {
        "id": 3616682,
        "name": "San Marcos",
        "country": "NI",
        "coord": {
            "lon": -86.203506,
            "lat": 11.90949
        }
    },
    {
        "id": 3617052,
        "name": "Rivas",
        "country": "NI",
        "coord": {
            "lon": -85.826317,
            "lat": 11.43716
        }
    },
    {
        "id": 3617095,
        "name": "Rama",
        "country": "NI",
        "coord": {
            "lon": -84.219521,
            "lat": 12.15965
        }
    },
    {
        "id": 3617459,
        "name": "Nueva Guinea",
        "country": "NI",
        "coord": {
            "lon": -84.456161,
            "lat": 11.68758
        }
    },
    {
        "id": 3617513,
        "name": "Nandaime",
        "country": "NI",
        "coord": {
            "lon": -86.052856,
            "lat": 11.75696
        }
    },
    {
        "id": 3617725,
        "name": "Masatepe",
        "country": "NI",
        "coord": {
            "lon": -86.144669,
            "lat": 11.9184
        }
    },
    {
        "id": 3618411,
        "name": "La Paz Centro",
        "country": "NI",
        "coord": {
            "lon": -86.675278,
            "lat": 12.34
        }
    },
    {
        "id": 3618908,
        "name": "Juigalpa",
        "country": "NI",
        "coord": {
            "lon": -85.364517,
            "lat": 12.10629
        }
    },
    {
        "id": 3618929,
        "name": "Jinotega",
        "country": "NI",
        "coord": {
            "lon": -86.00177,
            "lat": 13.09171
        }
    },
    {
        "id": 3619853,
        "name": "El Crucero",
        "country": "NI",
        "coord": {
            "lon": -86.30954,
            "lat": 11.99008
        }
    },
    {
        "id": 3620269,
        "name": "Corinto",
        "country": "NI",
        "coord": {
            "lon": -87.173363,
            "lat": 12.48199
        }
    },
    {
        "id": 3620381,
        "name": "Chinandega",
        "country": "NI",
        "coord": {
            "lon": -87.13105,
            "lat": 12.62937
        }
    },
    {
        "id": 3620674,
        "name": "Boaco",
        "country": "NI",
        "coord": {
            "lon": -85.6586,
            "lat": 12.47224
        }
    },
    {
        "id": 3615669,
        "name": "Yalaguina",
        "country": "NI",
        "coord": {
            "lon": -86.492973,
            "lat": 13.48375
        }
    },
    {
        "id": 3615683,
        "name": "Wiwili",
        "country": "NI",
        "coord": {
            "lon": -85.825401,
            "lat": 13.62679
        }
    },
    {
        "id": 3615730,
        "name": "Waspam",
        "country": "NI",
        "coord": {
            "lon": -83.971703,
            "lat": 14.74189
        }
    },
    {
        "id": 3615745,
        "name": "Waslala",
        "country": "NI",
        "coord": {
            "lon": -85.383331,
            "lat": 13.23333
        }
    },
    {
        "id": 3615813,
        "name": "Villa Sandino",
        "country": "NI",
        "coord": {
            "lon": -84.993622,
            "lat": 12.0483
        }
    },
    {
        "id": 3615865,
        "name": "Valle San Francisco",
        "country": "NI",
        "coord": {
            "lon": -86.283333,
            "lat": 12.51667
        }
    },
    {
        "id": 3615998,
        "name": "Totogalpa",
        "country": "NI",
        "coord": {
            "lon": -86.492393,
            "lat": 13.56269
        }
    },
    {
        "id": 3616019,
        "name": "Tola",
        "country": "NI",
        "coord": {
            "lon": -85.938911,
            "lat": 11.43927
        }
    },
    {
        "id": 3616028,
        "name": "Tisma",
        "country": "NI",
        "coord": {
            "lon": -86.017387,
            "lat": 12.08194
        }
    },
    {
        "id": 3616070,
        "name": "Teustepe",
        "country": "NI",
        "coord": {
            "lon": -85.79966,
            "lat": 12.42002
        }
    },
    {
        "id": 3616076,
        "name": "Terrabona",
        "country": "NI",
        "coord": {
            "lon": -85.964737,
            "lat": 12.73028
        }
    },
    {
        "id": 3616088,
        "name": "Telpaneca",
        "country": "NI",
        "coord": {
            "lon": -86.287102,
            "lat": 13.53166
        }
    },
    {
        "id": 3616092,
        "name": "Telica",
        "country": "NI",
        "coord": {
            "lon": -86.859383,
            "lat": 12.522
        }
    },
    {
        "id": 3616349,
        "name": "Santo Tomas",
        "country": "NI",
        "coord": {
            "lon": -85.090591,
            "lat": 12.06938
        }
    },
    {
        "id": 3616356,
        "name": "Santo Domingo",
        "country": "NI",
        "coord": {
            "lon": -85.08078,
            "lat": 12.26356
        }
    },
    {
        "id": 3616381,
        "name": "Santa Teresa",
        "country": "NI",
        "coord": {
            "lon": -86.214127,
            "lat": 11.74321
        }
    },
    {
        "id": 3616387,
        "name": "Santa Rosa del Penon",
        "country": "NI",
        "coord": {
            "lon": -86.369942,
            "lat": 12.80116
        }
    },
    {
        "id": 3616572,
        "name": "San Sebastian de Yali",
        "country": "NI",
        "coord": {
            "lon": -86.186409,
            "lat": 13.3051
        }
    },
    {
        "id": 3616584,
        "name": "San Ramon",
        "country": "NI",
        "coord": {
            "lon": -85.838982,
            "lat": 12.92344
        }
    },
    {
        "id": 3616659,
        "name": "San Miguelito",
        "country": "NI",
        "coord": {
            "lon": -84.89991,
            "lat": 11.40255
        }
    },
    {
        "id": 3616708,
        "name": "San Lorenzo",
        "country": "NI",
        "coord": {
            "lon": -85.667412,
            "lat": 12.37781
        }
    },
    {
        "id": 3616721,
        "name": "San Juan de Rio Coco",
        "country": "NI",
        "coord": {
            "lon": -86.165062,
            "lat": 13.54483
        }
    },
    {
        "id": 3616723,
        "name": "San Juan de Oriente",
        "country": "NI",
        "coord": {
            "lon": -86.073433,
            "lat": 11.90624
        }
    },
    {
        "id": 3616732,
        "name": "San Juan de Limay",
        "country": "NI",
        "coord": {
            "lon": -86.612343,
            "lat": 13.17603
        }
    },
    {
        "id": 3616753,
        "name": "San Jose de los Remates",
        "country": "NI",
        "coord": {
            "lon": -85.761703,
            "lat": 12.59725
        }
    },
    {
        "id": 3616757,
        "name": "San Jose de Cusmapa",
        "country": "NI",
        "coord": {
            "lon": -86.655403,
            "lat": 13.28841
        }
    },
    {
        "id": 3616759,
        "name": "San Jose de Bocay",
        "country": "NI",
        "coord": {
            "lon": -85.539421,
            "lat": 13.54204
        }
    },
    {
        "id": 3616794,
        "name": "San Jorge",
        "country": "NI",
        "coord": {
            "lon": -85.803078,
            "lat": 11.45584
        }
    },
    {
        "id": 3616871,
        "name": "San Fernando",
        "country": "NI",
        "coord": {
            "lon": -86.3153,
            "lat": 13.6772
        }
    },
    {
        "id": 3616888,
        "name": "San Dionisio",
        "country": "NI",
        "coord": {
            "lon": -85.850182,
            "lat": 12.76022
        }
    },
    {
        "id": 3616911,
        "name": "San Carlos",
        "country": "NI",
        "coord": {
            "lon": -84.777946,
            "lat": 11.1236
        }
    },
    {
        "id": 3617115,
        "name": "Quezalguaque",
        "country": "NI",
        "coord": {
            "lon": -86.902924,
            "lat": 12.50683
        }
    },
    {
        "id": 3617146,
        "name": "Puerto Morazan",
        "country": "NI",
        "coord": {
            "lon": -87.171669,
            "lat": 12.85042
        }
    },
    {
        "id": 3617162,
        "name": "Pueblo Nuevo",
        "country": "NI",
        "coord": {
            "lon": -86.480751,
            "lat": 13.37984
        }
    },
    {
        "id": 3617187,
        "name": "Potosi",
        "country": "NI",
        "coord": {
            "lon": -85.856796,
            "lat": 11.49416
        }
    },
    {
        "id": 3617191,
        "name": "Posoltega",
        "country": "NI",
        "coord": {
            "lon": -86.979919,
            "lat": 12.54481
        }
    },
    {
        "id": 3617388,
        "name": "Palacaguina",
        "country": "NI",
        "coord": {
            "lon": -86.406219,
            "lat": 13.45566
        }
    },
    {
        "id": 3617457,
        "name": "Nuevo Amanecer",
        "country": "NI",
        "coord": {
            "lon": -84.196289,
            "lat": 12.82247
        }
    },
    {
        "id": 3617510,
        "name": "Nandasmo",
        "country": "NI",
        "coord": {
            "lon": -86.12072,
            "lat": 11.92411
        }
    },
    {
        "id": 3617532,
        "name": "Muy Muy",
        "country": "NI",
        "coord": {
            "lon": -85.62915,
            "lat": 12.76224
        }
    },
    {
        "id": 3617543,
        "name": "Murra",
        "country": "NI",
        "coord": {
            "lon": -86.018433,
            "lat": 13.7585
        }
    },
    {
        "id": 3617562,
        "name": "Muelle de los Bueyes",
        "country": "NI",
        "coord": {
            "lon": -84.535027,
            "lat": 12.06999
        }
    },
    {
        "id": 3617569,
        "name": "Moyogalpa",
        "country": "NI",
        "coord": {
            "lon": -85.697952,
            "lat": 11.54006
        }
    },
    {
        "id": 3617575,
        "name": "Morrito",
        "country": "NI",
        "coord": {
            "lon": -85.080521,
            "lat": 11.62118
        }
    },
    {
        "id": 3617694,
        "name": "Matiguas",
        "country": "NI",
        "coord": {
            "lon": -85.462181,
            "lat": 12.83734
        }
    },
    {
        "id": 3617730,
        "name": "Masachapa",
        "country": "NI",
        "coord": {
            "lon": -86.51416,
            "lat": 11.78687
        }
    },
    {
        "id": 3618124,
        "name": "Las Sabanas",
        "country": "NI",
        "coord": {
            "lon": -86.621841,
            "lat": 13.34302
        }
    },
    {
        "id": 3618410,
        "name": "La Paz de Oriente",
        "country": "NI",
        "coord": {
            "lon": -86.127563,
            "lat": 11.82331
        }
    },
    {
        "id": 3618482,
        "name": "La Libertad",
        "country": "NI",
        "coord": {
            "lon": -85.165947,
            "lat": 12.21635
        }
    },
    {
        "id": 3618522,
        "name": "Laguna de Perlas",
        "country": "NI",
        "coord": {
            "lon": -83.671227,
            "lat": 12.34294
        }
    },
    {
        "id": 3618618,
        "name": "La Cruz de Rio Grande",
        "country": "NI",
        "coord": {
            "lon": -84.185883,
            "lat": 13.1129
        }
    },
    {
        "id": 3618637,
        "name": "La Concordia",
        "country": "NI",
        "coord": {
            "lon": -86.16674,
            "lat": 13.19528
        }
    },
    {
        "id": 3618648,
        "name": "La Concepcion",
        "country": "NI",
        "coord": {
            "lon": -86.189758,
            "lat": 11.93711
        }
    },
    {
        "id": 3618924,
        "name": "Jiquilillo",
        "country": "NI",
        "coord": {
            "lon": -87.451599,
            "lat": 12.74593
        }
    },
    {
        "id": 3619382,
        "name": "El Sauce",
        "country": "NI",
        "coord": {
            "lon": -86.539032,
            "lat": 12.88687
        }
    },
    {
        "id": 3619420,
        "name": "El Rosario",
        "country": "NI",
        "coord": {
            "lon": -86.373741,
            "lat": 11.77756
        }
    },
    {
        "id": 3619695,
        "name": "La Jicaral",
        "country": "NI",
        "coord": {
            "lon": -86.380577,
            "lat": 12.72676
        }
    },
    {
        "id": 3620084,
        "name": "El Ayote",
        "country": "NI",
        "coord": {
            "lon": -85.287369,
            "lat": 12.19046
        }
    },
    {
        "id": 3620106,
        "name": "El Almendro",
        "country": "NI",
        "coord": {
            "lon": -84.70269,
            "lat": 11.67859
        }
    },
    {
        "id": 3620163,
        "name": "Dolores",
        "country": "NI",
        "coord": {
            "lon": -86.215752,
            "lat": 11.85621
        }
    },
    {
        "id": 3620168,
        "name": "Diriomo",
        "country": "NI",
        "coord": {
            "lon": -86.051842,
            "lat": 11.87612
        }
    },
    {
        "id": 3620172,
        "name": "Diria",
        "country": "NI",
        "coord": {
            "lon": -86.055077,
            "lat": 11.8842
        }
    },
    {
        "id": 3620243,
        "name": "Cuapa",
        "country": "NI",
        "coord": {
            "lon": -85.381958,
            "lat": 12.26756
        }
    },
    {
        "id": 3620266,
        "name": "Corn Island",
        "country": "NI",
        "coord": {
            "lon": -83.041763,
            "lat": 12.16943
        }
    },
    {
        "id": 3620318,
        "name": "Comalapa",
        "country": "NI",
        "coord": {
            "lon": -85.510811,
            "lat": 12.28345
        }
    },
    {
        "id": 3620353,
        "name": "Ciudad Antigua",
        "country": "NI",
        "coord": {
            "lon": -86.308151,
            "lat": 13.6406
        }
    },
    {
        "id": 3620441,
        "name": "Catarina",
        "country": "NI",
        "coord": {
            "lon": -86.07383,
            "lat": 11.91197
        }
    },
    {
        "id": 3620473,
        "name": "Carlos Fonseca Amador",
        "country": "NI",
        "coord": {
            "lon": -86.505707,
            "lat": 11.98009
        }
    },
    {
        "id": 3620603,
        "name": "Buenos Aires",
        "country": "NI",
        "coord": {
            "lon": -85.816612,
            "lat": 11.46916
        }
    },
    {
        "id": 3620645,
        "name": "Bonanza",
        "country": "NI",
        "coord": {
            "lon": -84.591026,
            "lat": 14.02885
        }
    },
    {
        "id": 3620661,
        "name": "Bocana de Paiwas",
        "country": "NI",
        "coord": {
            "lon": -85.122688,
            "lat": 12.78571
        }
    },
    {
        "id": 3620734,
        "name": "Belen",
        "country": "NI",
        "coord": {
            "lon": -85.889343,
            "lat": 11.50299
        }
    },
    {
        "id": 3620930,
        "name": "Altagracia",
        "country": "NI",
        "coord": {
            "lon": -85.5784,
            "lat": 11.56615
        }
    },
    {
        "id": 3620978,
        "name": "Acoyapa",
        "country": "NI",
        "coord": {
            "lon": -85.171127,
            "lat": 11.97028
        }
    },
    {
        "id": 3620982,
        "name": "Achuapa",
        "country": "NI",
        "coord": {
            "lon": -86.590042,
            "lat": 13.0537
        }
    },
    {
        "id": 7668030,
        "name": "La Paz Centro",
        "country": "NI",
        "coord": {
            "lon": -86.676079,
            "lat": 12.33953
        }
    }
]