[
    {
        "id": 1283378,
        "name": "Gorkh\u0101",
        "country": "NP",
        "coord": {
            "lon": 84.633331,
            "lat": 28
        }
    },
    {
        "id": 1283710,
        "name": "B\u0101gmat\u012b Zone",
        "country": "NP",
        "coord": {
            "lon": 85.416664,
            "lat": 28
        }
    },
    {
        "id": 1283240,
        "name": "Kathmandu",
        "country": "NP",
        "coord": {
            "lon": 85.316666,
            "lat": 27.716667
        }
    },
    {
        "id": 1282635,
        "name": "Tulsipur",
        "country": "NP",
        "coord": {
            "lon": 82.297256,
            "lat": 28.130989
        }
    },
    {
        "id": 6941685,
        "name": "Pisang",
        "country": "NP",
        "coord": {
            "lon": 84.147202,
            "lat": 28.614647
        }
    },
    {
        "id": 1282682,
        "name": "Thapathali",
        "country": "NP",
        "coord": {
            "lon": 85.316666,
            "lat": 27.716667
        }
    },
    {
        "id": 1283076,
        "name": "Manangbhot",
        "country": "NP",
        "coord": {
            "lon": 84.01667,
            "lat": 28.666668
        }
    },
    {
        "id": 1283150,
        "name": "Lamjung",
        "country": "NP",
        "coord": {
            "lon": 84.366669,
            "lat": 28.200001
        }
    },
    {
        "id": 1282940,
        "name": "Par\u0101si",
        "country": "NP",
        "coord": {
            "lon": 83.666664,
            "lat": 27.533333
        }
    },
    {
        "id": 1283692,
        "name": "B\u0101l\u0101ju",
        "country": "NP",
        "coord": {
            "lon": 85.300003,
            "lat": 27.733334
        }
    },
    {
        "id": 7113953,
        "name": "Thamel",
        "country": "NP",
        "coord": {
            "lon": 85.310211,
            "lat": 27.715141
        }
    },
    {
        "id": 1282898,
        "name": "Pokhara",
        "country": "NP",
        "coord": {
            "lon": 83.98333,
            "lat": 28.233334
        }
    },
    {
        "id": 1283295,
        "name": "Jomosom",
        "country": "NP",
        "coord": {
            "lon": 83.73333,
            "lat": 28.783333
        }
    },
    {
        "id": 1282748,
        "name": "Sunauli",
        "country": "NP",
        "coord": {
            "lon": 83.416664,
            "lat": 27.5
        }
    },
    {
        "id": 1282933,
        "name": "Pashupatin\u0101th",
        "country": "NP",
        "coord": {
            "lon": 85.349998,
            "lat": 27.700001
        }
    },
    {
        "id": 7800118,
        "name": "Nagarkot",
        "country": "NP",
        "coord": {
            "lon": 85.503098,
            "lat": 27.713699
        }
    },
    {
        "id": 1282616,
        "name": "Waling",
        "country": "NP",
        "coord": {
            "lon": 83.76667,
            "lat": 27.98333
        }
    },
    {
        "id": 1282666,
        "name": "Tikapur",
        "country": "NP",
        "coord": {
            "lon": 81.133331,
            "lat": 28.5
        }
    },
    {
        "id": 1282714,
        "name": "Tansen",
        "country": "NP",
        "coord": {
            "lon": 83.5467,
            "lat": 27.86731
        }
    },
    {
        "id": 1282770,
        "name": "Siraha",
        "country": "NP",
        "coord": {
            "lon": 86.208702,
            "lat": 26.65411
        }
    },
    {
        "id": 1282884,
        "name": "Rajbiraj",
        "country": "NP",
        "coord": {
            "lon": 86.75,
            "lat": 26.533331
        }
    },
    {
        "id": 1282950,
        "name": "Panaoti",
        "country": "NP",
        "coord": {
            "lon": 85.512398,
            "lat": 27.581381
        }
    },
    {
        "id": 1283082,
        "name": "Malangwa",
        "country": "NP",
        "coord": {
            "lon": 85.558113,
            "lat": 26.856791
        }
    },
    {
        "id": 1283095,
        "name": "Mahendranagar",
        "country": "NP",
        "coord": {
            "lon": 80.333328,
            "lat": 28.91667
        }
    },
    {
        "id": 1283161,
        "name": "Lahan",
        "country": "NP",
        "coord": {
            "lon": 86.495148,
            "lat": 26.72958
        }
    },
    {
        "id": 1283217,
        "name": "Khandbari",
        "country": "NP",
        "coord": {
            "lon": 87.203903,
            "lat": 27.374689
        }
    },
    {
        "id": 1283318,
        "name": "Janakpur",
        "country": "NP",
        "coord": {
            "lon": 85.906464,
            "lat": 26.718281
        }
    },
    {
        "id": 1283323,
        "name": "Jaleswar",
        "country": "NP",
        "coord": {
            "lon": 85.800812,
            "lat": 26.64711
        }
    },
    {
        "id": 1283329,
        "name": "Ithari",
        "country": "NP",
        "coord": {
            "lon": 87.283333,
            "lat": 26.66667
        }
    },
    {
        "id": 1283334,
        "name": "Il\u0101m",
        "country": "NP",
        "coord": {
            "lon": 87.916672,
            "lat": 26.91667
        }
    },
    {
        "id": 1283333,
        "name": "Ilam",
        "country": "NP",
        "coord": {
            "lon": 87.928238,
            "lat": 26.90943
        }
    },
    {
        "id": 1283339,
        "name": "Hitura",
        "country": "NP",
        "coord": {
            "lon": 85.032188,
            "lat": 27.428391
        }
    },
    {
        "id": 1283368,
        "name": "Gulariya",
        "country": "NP",
        "coord": {
            "lon": 81.333328,
            "lat": 28.23333
        }
    },
    {
        "id": 1283401,
        "name": "Gaur",
        "country": "NP",
        "coord": {
            "lon": 85.26667,
            "lat": 26.76667
        }
    },
    {
        "id": 1283460,
        "name": "Dharan Bazar",
        "country": "NP",
        "coord": {
            "lon": 87.283546,
            "lat": 26.812481
        }
    },
    {
        "id": 1283465,
        "name": "Dhankuta",
        "country": "NP",
        "coord": {
            "lon": 87.333328,
            "lat": 26.98333
        }
    },
    {
        "id": 1283467,
        "name": "Dhangarhi",
        "country": "NP",
        "coord": {
            "lon": 80.596107,
            "lat": 28.70792
        }
    },
    {
        "id": 1283484,
        "name": "Darchula",
        "country": "NP",
        "coord": {
            "lon": 80.52874,
            "lat": 29.841209
        }
    },
    {
        "id": 1283497,
        "name": "Dailekh",
        "country": "NP",
        "coord": {
            "lon": 81.666672,
            "lat": 28.83333
        }
    },
    {
        "id": 1283496,
        "name": "Dailekh",
        "country": "NP",
        "coord": {
            "lon": 81.710114,
            "lat": 28.844339
        }
    },
    {
        "id": 1283499,
        "name": "Dadeldhura",
        "country": "NP",
        "coord": {
            "lon": 80.580589,
            "lat": 29.29842
        }
    },
    {
        "id": 1283562,
        "name": "Butwal",
        "country": "NP",
        "coord": {
            "lon": 83.448357,
            "lat": 27.70055
        }
    },
    {
        "id": 1283581,
        "name": "Birganj",
        "country": "NP",
        "coord": {
            "lon": 84.87735,
            "lat": 27.010429
        }
    },
    {
        "id": 1283628,
        "name": "Bhadrapur",
        "country": "NP",
        "coord": {
            "lon": 88.09436,
            "lat": 26.544041
        }
    },
    {
        "id": 1283679,
        "name": "Banepa",
        "country": "NP",
        "coord": {
            "lon": 85.521378,
            "lat": 27.629789
        }
    },
    {
        "id": 1283711,
        "name": "Baglung",
        "country": "NP",
        "coord": {
            "lon": 83.58976,
            "lat": 28.271891
        }
    },
    {
        "id": 6254843,
        "name": "Birendranagar",
        "country": "NP",
        "coord": {
            "lon": 81.633888,
            "lat": 28.60194
        }
    },
    {
        "id": 1282988,
        "name": "Kingdom of Nepal",
        "country": "NP",
        "coord": {
            "lon": 84,
            "lat": 28
        }
    },
    {
        "id": 6941672,
        "name": "Eklobhati",
        "country": "NP",
        "coord": {
            "lon": 83.773842,
            "lat": 28.818281
        }
    },
    {
        "id": 1283278,
        "name": "K\u0101gbeni",
        "country": "NP",
        "coord": {
            "lon": 83.783333,
            "lat": 28.833332
        }
    },
    {
        "id": 6941675,
        "name": "Khingar",
        "country": "NP",
        "coord": {
            "lon": 83.829529,
            "lat": 28.821741
        }
    },
    {
        "id": 6941673,
        "name": "Jharkot",
        "country": "NP",
        "coord": {
            "lon": 83.848106,
            "lat": 28.819372
        }
    },
    {
        "id": 1283031,
        "name": "Muktin\u0101th",
        "country": "NP",
        "coord": {
            "lon": 83.883331,
            "lat": 28.816668
        }
    },
    {
        "id": 1283213,
        "name": "Kh\u0101ngsar",
        "country": "NP",
        "coord": {
            "lon": 83.98333,
            "lat": 28.683332
        }
    },
    {
        "id": 6941681,
        "name": "Braga",
        "country": "NP",
        "coord": {
            "lon": 84.036827,
            "lat": 28.658733
        }
    },
    {
        "id": 6941683,
        "name": "Hongde",
        "country": "NP",
        "coord": {
            "lon": 84.087379,
            "lat": 28.641411
        }
    },
    {
        "id": 6941687,
        "name": "Ghyaru",
        "country": "NP",
        "coord": {
            "lon": 84.137505,
            "lat": 28.642143
        }
    },
    {
        "id": 6941686,
        "name": "Upper Pisang",
        "country": "NP",
        "coord": {
            "lon": 84.153664,
            "lat": 28.616266
        }
    },
    {
        "id": 6941688,
        "name": "Bhratang",
        "country": "NP",
        "coord": {
            "lon": 84.190163,
            "lat": 28.572914
        }
    },
    {
        "id": 6941689,
        "name": "Chame",
        "country": "NP",
        "coord": {
            "lon": 84.250977,
            "lat": 28.553692
        }
    },
    {
        "id": 1282676,
        "name": "Thonje",
        "country": "NP",
        "coord": {
            "lon": 84.349998,
            "lat": 28.516666
        }
    },
    {
        "id": 1282731,
        "name": "T\u0101gring",
        "country": "NP",
        "coord": {
            "lon": 84.383331,
            "lat": 28.35
        }
    },
    {
        "id": 6254841,
        "name": "Thulobeshi",
        "country": "NP",
        "coord": {
            "lon": 84.419167,
            "lat": 28.333889
        }
    },
    {
        "id": 6941690,
        "name": "Khudi",
        "country": "NP",
        "coord": {
            "lon": 84.359123,
            "lat": 28.282162
        }
    },
    {
        "id": 1283038,
        "name": "Muglaha",
        "country": "NP",
        "coord": {
            "lon": 83.23333,
            "lat": 27.483334
        }
    },
    {
        "id": 1282839,
        "name": "Rummin-dei",
        "country": "NP",
        "coord": {
            "lon": 83.283333,
            "lat": 27.483334
        }
    },
    {
        "id": 1283621,
        "name": "Bhairahawa",
        "country": "NP",
        "coord": {
            "lon": 83.449997,
            "lat": 27.5
        }
    },
    {
        "id": 1282724,
        "name": "Tam\u0101spur",
        "country": "NP",
        "coord": {
            "lon": 83.949997,
            "lat": 27.566668
        }
    },
    {
        "id": 1283006,
        "name": "Nandpur",
        "country": "NP",
        "coord": {
            "lon": 84.033333,
            "lat": 27.566668
        }
    },
    {
        "id": 1283522,
        "name": "Chilha",
        "country": "NP",
        "coord": {
            "lon": 84.116669,
            "lat": 27.616667
        }
    },
    {
        "id": 1283046,
        "name": "Meghauli",
        "country": "NP",
        "coord": {
            "lon": 84.23333,
            "lat": 27.583332
        }
    },
    {
        "id": 1283049,
        "name": "Maruw\u0101 Gh\u0101t",
        "country": "NP",
        "coord": {
            "lon": 84.400002,
            "lat": 27.700001
        }
    },
    {
        "id": 1283001,
        "name": "N\u0101r\u0101yangarh",
        "country": "NP",
        "coord": {
            "lon": 84.416664,
            "lat": 27.683332
        }
    },
    {
        "id": 1283613,
        "name": "Bharatpur",
        "country": "NP",
        "coord": {
            "lon": 84.433334,
            "lat": 27.683332
        }
    },
    {
        "id": 1282665,
        "name": "Tikoli",
        "country": "NP",
        "coord": {
            "lon": 84.5,
            "lat": 27.633333
        }
    },
    {
        "id": 1282621,
        "name": "Upard\u0101ng Garhi",
        "country": "NP",
        "coord": {
            "lon": 84.566666,
            "lat": 27.766666
        }
    },
    {
        "id": 1283256,
        "name": "K\u0101ndr\u0101ng Garhi",
        "country": "NP",
        "coord": {
            "lon": 84.783333,
            "lat": 27.716667
        }
    },
    {
        "id": 1282951,
        "name": "P\u0101lung",
        "country": "NP",
        "coord": {
            "lon": 85.066666,
            "lat": 27.633333
        }
    },
    {
        "id": 1282996,
        "name": "Naubise",
        "country": "NP",
        "coord": {
            "lon": 85.150002,
            "lat": 27.716667
        }
    },
    {
        "id": 1282684,
        "name": "Th\u0101nkot",
        "country": "NP",
        "coord": {
            "lon": 85.183334,
            "lat": 27.683332
        }
    },
    {
        "id": 1283190,
        "name": "Kirtipur",
        "country": "NP",
        "coord": {
            "lon": 85.283333,
            "lat": 27.666668
        }
    },
    {
        "id": 1283312,
        "name": "Jawlakhel",
        "country": "NP",
        "coord": {
            "lon": 85.316666,
            "lat": 27.666668
        }
    },
    {
        "id": 1282931,
        "name": "Patan",
        "country": "NP",
        "coord": {
            "lon": 85.333336,
            "lat": 27.666668
        }
    },
    {
        "id": 1283678,
        "name": "B\u0101neswar",
        "country": "NP",
        "coord": {
            "lon": 85.333336,
            "lat": 27.683332
        }
    },
    {
        "id": 1282976,
        "name": "Noug\u0101m",
        "country": "NP",
        "coord": {
            "lon": 85.26667,
            "lat": 27.666668
        }
    },
    {
        "id": 1283422,
        "name": "Dum\u0101n",
        "country": "NP",
        "coord": {
            "lon": 85.116669,
            "lat": 27.683332
        }
    },
    {
        "id": 1283471,
        "name": "Dh\u0101ding",
        "country": "NP",
        "coord": {
            "lon": 84.916664,
            "lat": 27.866667
        }
    },
    {
        "id": 1283636,
        "name": "Benigh\u0101t",
        "country": "NP",
        "coord": {
            "lon": 84.783333,
            "lat": 27.816668
        }
    },
    {
        "id": 1283088,
        "name": "Makaising",
        "country": "NP",
        "coord": {
            "lon": 84.683334,
            "lat": 27.883333
        }
    },
    {
        "id": 1283680,
        "name": "Band\u012bpur",
        "country": "NP",
        "coord": {
            "lon": 84.416664,
            "lat": 27.933332
        }
    },
    {
        "id": 1282721,
        "name": "Tanahun",
        "country": "NP",
        "coord": {
            "lon": 84.333336,
            "lat": 28.033333
        }
    },
    {
        "id": 1282766,
        "name": "Sis\u0101gh\u0101t B\u0101z\u0101r",
        "country": "NP",
        "coord": {
            "lon": 84.25,
            "lat": 28.083332
        }
    },
    {
        "id": 1283651,
        "name": "Bath\u0101la",
        "country": "NP",
        "coord": {
            "lon": 84.066666,
            "lat": 28.049999
        }
    },
    {
        "id": 1283474,
        "name": "Deor\u0101li",
        "country": "NP",
        "coord": {
            "lon": 84.166664,
            "lat": 28.116667
        }
    },
    {
        "id": 1282869,
        "name": "R\u0101n\u012bpauwa",
        "country": "NP",
        "coord": {
            "lon": 84,
            "lat": 28.216667
        }
    },
    {
        "id": 1283654,
        "name": "Bart\u0101r",
        "country": "NP",
        "coord": {
            "lon": 84.433334,
            "lat": 28.116667
        }
    },
    {
        "id": 1282679,
        "name": "Th\u0101re P\u0101ti",
        "country": "NP",
        "coord": {
            "lon": 85.5,
            "lat": 28.016666
        }
    },
    {
        "id": 1283113,
        "name": "Lukla",
        "country": "NP",
        "coord": {
            "lon": 86.716667,
            "lat": 27.700001
        }
    },
    {
        "id": 1283011,
        "name": "Namche Bazar",
        "country": "NP",
        "coord": {
            "lon": 86.716667,
            "lat": 27.816668
        }
    },
    {
        "id": 1282670,
        "name": "Thy\u0101ngboche",
        "country": "NP",
        "coord": {
            "lon": 86.76667,
            "lat": 27.833332
        }
    },
    {
        "id": 1283044,
        "name": "Mingbo",
        "country": "NP",
        "coord": {
            "lon": 86.816666,
            "lat": 27.85
        }
    },
    {
        "id": 1283437,
        "name": "Dingboche",
        "country": "NP",
        "coord": {
            "lon": 86.833336,
            "lat": 27.9
        }
    },
    {
        "id": 1282673,
        "name": "Thukla",
        "country": "NP",
        "coord": {
            "lon": 86.800003,
            "lat": 27.916668
        }
    },
    {
        "id": 1283119,
        "name": "Lobujya",
        "country": "NP",
        "coord": {
            "lon": 86.816666,
            "lat": 27.950001
        }
    },
    {
        "id": 1282913,
        "name": "Phorcha",
        "country": "NP",
        "coord": {
            "lon": 86.75,
            "lat": 27.85
        }
    },
    {
        "id": 1283524,
        "name": "Chhule",
        "country": "NP",
        "coord": {
            "lon": 86.616669,
            "lat": 27.950001
        }
    },
    {
        "id": 6941095,
        "name": "Dole",
        "country": "NP",
        "coord": {
            "lon": 86.716667,
            "lat": 27.833332
        }
    },
    {
        "id": 1282945,
        "name": "Pangboche",
        "country": "NP",
        "coord": {
            "lon": 86.800003,
            "lat": 27.85
        }
    },
    {
        "id": 1283290,
        "name": "Jubing",
        "country": "NP",
        "coord": {
            "lon": 86.699997,
            "lat": 27.583332
        }
    },
    {
        "id": 1283284,
        "name": "Junbesi",
        "country": "NP",
        "coord": {
            "lon": 86.533333,
            "lat": 27.583332
        }
    },
    {
        "id": 1282860,
        "name": "Rasn\u0101lu",
        "country": "NP",
        "coord": {
            "lon": 86.199997,
            "lat": 27.566668
        }
    },
    {
        "id": 1282671,
        "name": "Thulop\u0101t\u0101l",
        "country": "NP",
        "coord": {
            "lon": 86.166664,
            "lat": 27.6
        }
    },
    {
        "id": 1283192,
        "name": "Kir\u0101nt\u012bchh\u0101p",
        "country": "NP",
        "coord": {
            "lon": 86.066666,
            "lat": 27.633333
        }
    },
    {
        "id": 1283546,
        "name": "Charikot",
        "country": "NP",
        "coord": {
            "lon": 86.033333,
            "lat": 27.666668
        }
    },
    {
        "id": 1282720,
        "name": "T\u0101ndi",
        "country": "NP",
        "coord": {
            "lon": 85.916664,
            "lat": 27.633333
        }
    },
    {
        "id": 1283429,
        "name": "Dol\u0101lgh\u0101t",
        "country": "NP",
        "coord": {
            "lon": 85.699997,
            "lat": 27.65
        }
    },
    {
        "id": 1282948,
        "name": "Panchkhal",
        "country": "NP",
        "coord": {
            "lon": 85.616669,
            "lat": 27.65
        }
    },
    {
        "id": 1283018,
        "name": "Nagarkot",
        "country": "NP",
        "coord": {
            "lon": 85.51667,
            "lat": 27.700001
        }
    },
    {
        "id": 1282813,
        "name": "S\u0101nkhu",
        "country": "NP",
        "coord": {
            "lon": 85.449997,
            "lat": 27.716667
        }
    },
    {
        "id": 1283647,
        "name": "Baudhatinchule",
        "country": "NP",
        "coord": {
            "lon": 85.366669,
            "lat": 27.716667
        }
    },
    {
        "id": 1282677,
        "name": "Thimi",
        "country": "NP",
        "coord": {
            "lon": 85.383331,
            "lat": 27.683332
        }
    },
    {
        "id": 1283618,
        "name": "Bhaktapur",
        "country": "NP",
        "coord": {
            "lon": 85.416725,
            "lat": 27.667337
        }
    },
    {
        "id": 1283540,
        "name": "Chaunrikharka",
        "country": "NP",
        "coord": {
            "lon": 86.716667,
            "lat": 27.666668
        }
    },
    {
        "id": 1283616,
        "name": "Bhand\u0101r",
        "country": "NP",
        "coord": {
            "lon": 86.349998,
            "lat": 27.583332
        }
    },
    {
        "id": 1282675,
        "name": "Those",
        "country": "NP",
        "coord": {
            "lon": 86.25,
            "lat": 27.583332
        }
    },
    {
        "id": 1283617,
        "name": "Bhaktapur",
        "country": "NP",
        "coord": {
            "lon": 85.416664,
            "lat": 27.683332
        }
    },
    {
        "id": 1283510,
        "name": "Chukhung",
        "country": "NP",
        "coord": {
            "lon": 86.833336,
            "lat": 27.9
        }
    },
    {
        "id": 1283047,
        "name": "Mech\u012b Zone",
        "country": "NP",
        "coord": {
            "lon": 87.916664,
            "lat": 27.166668
        }
    },
    {
        "id": 1282836,
        "name": "Sagarm\u0101th\u0101 Zone",
        "country": "NP",
        "coord": {
            "lon": 86.666664,
            "lat": 27.333332
        }
    },
    {
        "id": 1283454,
        "name": "Dhawal\u0101giri Zone",
        "country": "NP",
        "coord": {
            "lon": 83.5,
            "lat": 28.833332
        }
    },
    {
        "id": 1283410,
        "name": "Gandak\u012b Zone",
        "country": "NP",
        "coord": {
            "lon": 84.5,
            "lat": 28.166668
        }
    },
    {
        "id": 7289709,
        "name": "Pashchimanchal",
        "country": "NP",
        "coord": {
            "lon": 83.938293,
            "lat": 28.170389
        }
    },
    {
        "id": 1282722,
        "name": "Tanahun",
        "country": "NP",
        "coord": {
            "lon": 84.25,
            "lat": 27.91667
        }
    },
    {
        "id": 7801503,
        "name": "Bhanumati",
        "country": "NP",
        "coord": {
            "lon": 84.030571,
            "lat": 28.00094
        }
    },
    {
        "id": 8003027,
        "name": "Buchakhani",
        "country": "NP",
        "coord": {
            "lon": 84.000778,
            "lat": 28.00042
        }
    },
    {
        "id": 7289707,
        "name": "Madhyamanchal",
        "country": "NP",
        "coord": {
            "lon": 85.223007,
            "lat": 27.454359
        }
    },
    {
        "id": 1282973,
        "name": "Nuw\u0101kot",
        "country": "NP",
        "coord": {
            "lon": 85.25,
            "lat": 27.91667
        }
    },
    {
        "id": 7802136,
        "name": "Ghyangphedi",
        "country": "NP",
        "coord": {
            "lon": 85.439941,
            "lat": 27.989901
        }
    },
    {
        "id": 7974073,
        "name": "Lampate",
        "country": "NP",
        "coord": {
            "lon": 85.424698,
            "lat": 27.985451
        }
    },
    {
        "id": 1283379,
        "name": "Gorkh\u0101",
        "country": "NP",
        "coord": {
            "lon": 84.833328,
            "lat": 28.33333
        }
    },
    {
        "id": 7799297,
        "name": "PrithbinarayanN.P.",
        "country": "NP",
        "coord": {
            "lon": 84.605301,
            "lat": 27.9804
        }
    },
    {
        "id": 7949204,
        "name": "(Pokharithok Bajar)",
        "country": "NP",
        "coord": {
            "lon": 84.630653,
            "lat": 27.996189
        }
    },
    {
        "id": 1283077,
        "name": "Manang",
        "country": "NP",
        "coord": {
            "lon": 84.25,
            "lat": 28.66667
        }
    },
    {
        "id": 7802063,
        "name": "Pisang",
        "country": "NP",
        "coord": {
            "lon": 84.149063,
            "lat": 28.597429
        }
    },
    {
        "id": 1283243,
        "name": "K\u0101sk\u012b",
        "country": "NP",
        "coord": {
            "lon": 84,
            "lat": 28.33333
        }
    },
    {
        "id": 7801962,
        "name": "PokharaN.P.",
        "country": "NP",
        "coord": {
            "lon": 83.99218,
            "lat": 28.21386
        }
    },
    {
        "id": 7961335,
        "name": "Nalamukh",
        "country": "NP",
        "coord": {
            "lon": 83.98391,
            "lat": 28.231001
        }
    },
    {
        "id": 1283023,
        "name": "Must\u0101ng",
        "country": "NP",
        "coord": {
            "lon": 83.916672,
            "lat": 28.91667
        }
    },
    {
        "id": 7800940,
        "name": "Jomsom",
        "country": "NP",
        "coord": {
            "lon": 83.770432,
            "lat": 28.76696
        }
    },
    {
        "id": 7910491,
        "name": "Jomsom",
        "country": "NP",
        "coord": {
            "lon": 83.73513,
            "lat": 28.784361
        }
    },
    {
        "id": 1283151,
        "name": "Lamjung",
        "country": "NP",
        "coord": {
            "lon": 84.416672,
            "lat": 28.25
        }
    },
    {
        "id": 7800858,
        "name": "Gaunshahar",
        "country": "NP",
        "coord": {
            "lon": 84.380539,
            "lat": 28.20573
        }
    },
    {
        "id": 7966485,
        "name": "Khatrigaun",
        "country": "NP",
        "coord": {
            "lon": 84.371452,
            "lat": 28.199881
        }
    },
    {
        "id": 7800941,
        "name": "Kagbeni",
        "country": "NP",
        "coord": {
            "lon": 83.727898,
            "lat": 28.849649
        }
    },
    {
        "id": 7971832,
        "name": "Kagbenee",
        "country": "NP",
        "coord": {
            "lon": 83.787109,
            "lat": 28.83882
        }
    },
    {
        "id": 7800933,
        "name": "Khangsar",
        "country": "NP",
        "coord": {
            "lon": 83.925346,
            "lat": 28.660391
        }
    },
    {
        "id": 7969462,
        "name": "Chyongo",
        "country": "NP",
        "coord": {
            "lon": 83.975517,
            "lat": 28.67861
        }
    },
    {
        "id": 7802061,
        "name": "Chame",
        "country": "NP",
        "coord": {
            "lon": 84.269928,
            "lat": 28.5338
        }
    },
    {
        "id": 7800877,
        "name": "Taghring",
        "country": "NP",
        "coord": {
            "lon": 84.381828,
            "lat": 28.370001
        }
    },
    {
        "id": 7967083,
        "name": "Gairigaun",
        "country": "NP",
        "coord": {
            "lon": 84.381203,
            "lat": 28.34211
        }
    },
    {
        "id": 7801994,
        "name": "Khudi",
        "country": "NP",
        "coord": {
            "lon": 84.36631,
            "lat": 28.32102
        }
    },
    {
        "id": 1283112,
        "name": "Lumbin\u012b Zone",
        "country": "NP",
        "coord": {
            "lon": 83.5,
            "lat": 27.75
        }
    },
    {
        "id": 1282837,
        "name": "R\u016bpandeh\u012b",
        "country": "NP",
        "coord": {
            "lon": 83.416672,
            "lat": 27.66667
        }
    },
    {
        "id": 7802360,
        "name": "SiddharthNagarN.P.",
        "country": "NP",
        "coord": {
            "lon": 83.448341,
            "lat": 27.502661
        }
    },
    {
        "id": 1282991,
        "name": "Nawalpar\u0101s\u012b",
        "country": "NP",
        "coord": {
            "lon": 83.916672,
            "lat": 27.66667
        }
    },
    {
        "id": 7800988,
        "name": "RamgramN.P.",
        "country": "NP",
        "coord": {
            "lon": 83.6735,
            "lat": 27.52935
        }
    },
    {
        "id": 7973340,
        "name": "Ghodpali",
        "country": "NP",
        "coord": {
            "lon": 83.661621,
            "lat": 27.52878
        }
    },
    {
        "id": 7802106,
        "name": "Kolhuwa",
        "country": "NP",
        "coord": {
            "lon": 84.059471,
            "lat": 27.57535
        }
    },
    {
        "id": 7973056,
        "name": "Nandapur",
        "country": "NP",
        "coord": {
            "lon": 84.037491,
            "lat": 27.56111
        }
    },
    {
        "id": 7802105,
        "name": "Kawaswoti",
        "country": "NP",
        "coord": {
            "lon": 84.127563,
            "lat": 27.61747
        }
    },
    {
        "id": 7973039,
        "name": "Makarkot",
        "country": "NP",
        "coord": {
            "lon": 84.117218,
            "lat": 27.622061
        }
    },
    {
        "id": 7801829,
        "name": "Gaidakot",
        "country": "NP",
        "coord": {
            "lon": 84.396339,
            "lat": 27.707899
        }
    },
    {
        "id": 7972960,
        "name": "Madhuwaghat",
        "country": "NP",
        "coord": {
            "lon": 84.400383,
            "lat": 27.70216
        }
    },
    {
        "id": 1283000,
        "name": "N\u0101r\u0101yan\u012b Zone",
        "country": "NP",
        "coord": {
            "lon": 84.916672,
            "lat": 27.366671
        }
    },
    {
        "id": 1283517,
        "name": "Chitawan",
        "country": "NP",
        "coord": {
            "lon": 84.5,
            "lat": 27.58333
        }
    },
    {
        "id": 7800545,
        "name": "Dahakhani",
        "country": "NP",
        "coord": {
            "lon": 84.54248,
            "lat": 27.77109
        }
    },
    {
        "id": 7934341,
        "name": "Dharsin",
        "country": "NP",
        "coord": {
            "lon": 84.563408,
            "lat": 27.764071
        }
    },
    {
        "id": 1283472,
        "name": "Dh\u0101ding",
        "country": "NP",
        "coord": {
            "lon": 84.916672,
            "lat": 28
        }
    },
    {
        "id": 7799586,
        "name": "Naubise",
        "country": "NP",
        "coord": {
            "lon": 85.156998,
            "lat": 27.703199
        }
    },
    {
        "id": 7942140,
        "name": "Kattichhap",
        "country": "NP",
        "coord": {
            "lon": 85.1492,
            "lat": 27.71784
        }
    },
    {
        "id": 1283085,
        "name": "Makw\u0101npur",
        "country": "NP",
        "coord": {
            "lon": 85.25,
            "lat": 27.41667
        }
    },
    {
        "id": 7802044,
        "name": "Chitlang",
        "country": "NP",
        "coord": {
            "lon": 85.169281,
            "lat": 27.647539
        }
    },
    {
        "id": 7968003,
        "name": "Dandakhrka",
        "country": "NP",
        "coord": {
            "lon": 85.18428,
            "lat": 27.67441
        }
    },
    {
        "id": 1282946,
        "name": "P\u0101nga",
        "country": "NP",
        "coord": {
            "lon": 85.283333,
            "lat": 27.66667
        }
    },
    {
        "id": 1283154,
        "name": "Lalitpur",
        "country": "NP",
        "coord": {
            "lon": 85.333328,
            "lat": 27.58333
        }
    },
    {
        "id": 7799973,
        "name": "LalitpurN.P.",
        "country": "NP",
        "coord": {
            "lon": 85.319901,
            "lat": 27.6691
        }
    },
    {
        "id": 7965675,
        "name": "Gwarko",
        "country": "NP",
        "coord": {
            "lon": 85.335037,
            "lat": 27.666599
        }
    },
    {
        "id": 1283241,
        "name": "Kathmandu",
        "country": "NP",
        "coord": {
            "lon": 85.416672,
            "lat": 27.75
        }
    },
    {
        "id": 7800827,
        "name": "KathmanduN.P.",
        "country": "NP",
        "coord": {
            "lon": 85.322182,
            "lat": 27.70731
        }
    },
    {
        "id": 7962239,
        "name": "Shankhamul Dobhan",
        "country": "NP",
        "coord": {
            "lon": 85.334251,
            "lat": 27.680861
        }
    },
    {
        "id": 7799674,
        "name": "Sunaulabazar",
        "country": "NP",
        "coord": {
            "lon": 84.911102,
            "lat": 27.870199
        }
    },
    {
        "id": 7942462,
        "name": "Kusunde",
        "country": "NP",
        "coord": {
            "lon": 84.913887,
            "lat": 27.864161
        }
    },
    {
        "id": 7802653,
        "name": "Tanahunsur",
        "country": "NP",
        "coord": {
            "lon": 84.334641,
            "lat": 28.036249
        }
    },
    {
        "id": 8004777,
        "name": "Patyarthok",
        "country": "NP",
        "coord": {
            "lon": 84.334068,
            "lat": 28.03129
        }
    },
    {
        "id": 7801509,
        "name": "Kyamin",
        "country": "NP",
        "coord": {
            "lon": 84.267509,
            "lat": 28.060459
        }
    },
    {
        "id": 8004101,
        "name": "Baniya Dihi",
        "country": "NP",
        "coord": {
            "lon": 84.25209,
            "lat": 28.084221
        }
    },
    {
        "id": 7801505,
        "name": "Dhorfirdi",
        "country": "NP",
        "coord": {
            "lon": 84.030937,
            "lat": 28.05267
        }
    },
    {
        "id": 8003390,
        "name": "Ganapati",
        "country": "NP",
        "coord": {
            "lon": 84.063431,
            "lat": 28.051809
        }
    },
    {
        "id": 7800254,
        "name": "Deurali",
        "country": "NP",
        "coord": {
            "lon": 84.153458,
            "lat": 28.118429
        }
    },
    {
        "id": 7960439,
        "name": "Kusunde",
        "country": "NP",
        "coord": {
            "lon": 84.168121,
            "lat": 28.122789
        }
    },
    {
        "id": 7800876,
        "name": "Sundarbazar",
        "country": "NP",
        "coord": {
            "lon": 84.419907,
            "lat": 28.13188
        }
    },
    {
        "id": 7967031,
        "name": "Paundidhik Bajar",
        "country": "NP",
        "coord": {
            "lon": 84.429062,
            "lat": 28.114571
        }
    },
    {
        "id": 7647006,
        "name": "Sindhupalchok",
        "country": "NP",
        "coord": {
            "lon": 85.545036,
            "lat": 27.829359
        }
    },
    {
        "id": 7801335,
        "name": "Helumbu",
        "country": "NP",
        "coord": {
            "lon": 85.54435,
            "lat": 27.993549
        }
    },
    {
        "id": 7994717,
        "name": "Panchosa",
        "country": "NP",
        "coord": {
            "lon": 85.507423,
            "lat": 28.0037
        }
    },
    {
        "id": 7289708,
        "name": "Purwanchal",
        "country": "NP",
        "coord": {
            "lon": 87.148018,
            "lat": 27.239981
        }
    },
    {
        "id": 1282758,
        "name": "Solukhumb\u016b",
        "country": "NP",
        "coord": {
            "lon": 86.75,
            "lat": 27.75
        }
    },
    {
        "id": 7802556,
        "name": "Chaurikharka",
        "country": "NP",
        "coord": {
            "lon": 86.736519,
            "lat": 27.7139
        }
    },
    {
        "id": 7996530,
        "name": "Chaurikharka",
        "country": "NP",
        "coord": {
            "lon": 86.721741,
            "lat": 27.697809
        }
    },
    {
        "id": 7801416,
        "name": "Khumjung",
        "country": "NP",
        "coord": {
            "lon": 86.757339,
            "lat": 27.87332
        }
    },
    {
        "id": 7996816,
        "name": "Jaro",
        "country": "NP",
        "coord": {
            "lon": 86.713219,
            "lat": 27.81604
        }
    },
    {
        "id": 7996820,
        "name": "Thyanboche",
        "country": "NP",
        "coord": {
            "lon": 86.768822,
            "lat": 27.837379
        }
    },
    {
        "id": 7996828,
        "name": "Minbo",
        "country": "NP",
        "coord": {
            "lon": 86.822388,
            "lat": 27.85405
        }
    },
    {
        "id": 7996839,
        "name": "Dinboche",
        "country": "NP",
        "coord": {
            "lon": 86.837059,
            "lat": 27.8964
        }
    },
    {
        "id": 7996868,
        "name": "Phorche",
        "country": "NP",
        "coord": {
            "lon": 86.752823,
            "lat": 27.849939
        }
    },
    {
        "id": 7801420,
        "name": "Namche",
        "country": "NP",
        "coord": {
            "lon": 86.666191,
            "lat": 27.83148
        }
    },
    {
        "id": 7997059,
        "name": "Chhulung Marsaang",
        "country": "NP",
        "coord": {
            "lon": 86.610863,
            "lat": 27.94282
        }
    },
    {
        "id": 7800110,
        "name": "Kautunje",
        "country": "NP",
        "coord": {
            "lon": 85.411499,
            "lat": 27.663601
        }
    },
    {
        "id": 1283182,
        "name": "Kos\u012b Zone",
        "country": "NP",
        "coord": {
            "lon": 87.316673,
            "lat": 27.15
        }
    },
    {
        "id": 1283712,
        "name": "B\u0101glung",
        "country": "NP",
        "coord": {
            "lon": 83.166672,
            "lat": 28.41667
        }
    },
    {
        "id": 7962279,
        "name": "Sinamangal",
        "country": "NP",
        "coord": {
            "lon": 85.354942,
            "lat": 27.69632
        }
    },
    {
        "id": 8010237,
        "name": "Banachaur",
        "country": "NP",
        "coord": {
            "lon": 85.415756,
            "lat": 27.666161
        }
    },
    {
        "id": 1283582,
        "name": "Biratnagar",
        "country": "NP",
        "coord": {
            "lon": 87.283371,
            "lat": 26.483101
        }
    },
    {
        "id": 1283316,
        "name": "Janakpur Zone",
        "country": "NP",
        "coord": {
            "lon": 86,
            "lat": 27.33333
        }
    },
    {
        "id": 7648379,
        "name": "Dhanusa",
        "country": "NP",
        "coord": {
            "lon": 86.010002,
            "lat": 26.83
        }
    },
    {
        "id": 7800051,
        "name": "Basahiya",
        "country": "NP",
        "coord": {
            "lon": 85.911797,
            "lat": 26.6961
        }
    },
    {
        "id": 7943571,
        "name": "Basahiya",
        "country": "NP",
        "coord": {
            "lon": 85.913887,
            "lat": 26.69743
        }
    },
    {
        "id": 7800283,
        "name": "Darling",
        "country": "NP",
        "coord": {
            "lon": 83.589157,
            "lat": 28.27663
        }
    },
    {
        "id": 7953967,
        "name": "Ramrekha",
        "country": "NP",
        "coord": {
            "lon": 83.605827,
            "lat": 28.26368
        }
    },
    {
        "id": 7289706,
        "name": "Madhya Pashchimanchal",
        "country": "NP",
        "coord": {
            "lon": 82.313347,
            "lat": 29.059771
        }
    },
    {
        "id": 1283606,
        "name": "Bher\u012b Zone",
        "country": "NP",
        "coord": {
            "lon": 81.666672,
            "lat": 28.58333
        }
    },
    {
        "id": 6941099,
        "name": "Nepalgunj",
        "country": "NP",
        "coord": {
            "lon": 81.616669,
            "lat": 28.049999
        }
    },
    {
        "id": 1283040,
        "name": "Morang",
        "country": "NP",
        "coord": {
            "lon": 87.5,
            "lat": 26.66667
        }
    },
    {
        "id": 7799185,
        "name": "BiratnagarN.P.",
        "country": "NP",
        "coord": {
            "lon": 87.274101,
            "lat": 26.452499
        }
    },
    {
        "id": 7970003,
        "name": "Airport",
        "country": "NP",
        "coord": {
            "lon": 87.27092,
            "lat": 26.484381
        }
    },
    {
        "id": 1282938,
        "name": "Parsa",
        "country": "NP",
        "coord": {
            "lon": 84.833328,
            "lat": 27.33333
        }
    },
    {
        "id": 7801091,
        "name": "Nirmalbasti",
        "country": "NP",
        "coord": {
            "lon": 84.671509,
            "lat": 27.30599
        }
    },
    {
        "id": 7979462,
        "name": "Odar",
        "country": "NP",
        "coord": {
            "lon": 84.654846,
            "lat": 27.322781
        }
    },
    {
        "id": 7667450,
        "name": "Surkhet",
        "country": "NP",
        "coord": {
            "lon": 81.778702,
            "lat": 28.51746
        }
    },
    {
        "id": 7801451,
        "name": "BirendranagarN.P.",
        "country": "NP",
        "coord": {
            "lon": 81.619041,
            "lat": 28.61198
        }
    },
    {
        "id": 7998675,
        "name": "Khajura",
        "country": "NP",
        "coord": {
            "lon": 81.63163,
            "lat": 28.58744
        }
    },
    {
        "id": 1283670,
        "name": "B\u0101r\u0101",
        "country": "NP",
        "coord": {
            "lon": 85.083328,
            "lat": 27.08333
        }
    },
    {
        "id": 7799408,
        "name": "PiparaSimara",
        "country": "NP",
        "coord": {
            "lon": 85.005898,
            "lat": 27.1912
        }
    },
    {
        "id": 8009059,
        "name": "Auraha",
        "country": "NP",
        "coord": {
            "lon": 84.987831,
            "lat": 27.15839
        }
    },
    {
        "id": 7961377,
        "name": "Syaldule",
        "country": "NP",
        "coord": {
            "lon": 83.981262,
            "lat": 28.19623
        }
    },
    {
        "id": 1283245,
        "name": "Karn\u0101l\u012b Zone",
        "country": "NP",
        "coord": {
            "lon": 82.416672,
            "lat": 29.5
        }
    },
    {
        "id": 1283287,
        "name": "Jumla",
        "country": "NP",
        "coord": {
            "lon": 82.183327,
            "lat": 29.27528
        }
    },
    {
        "id": 7798776,
        "name": "Chandannath",
        "country": "NP",
        "coord": {
            "lon": 82.175598,
            "lat": 29.315201
        }
    },
    {
        "id": 7955603,
        "name": "Talichaur",
        "country": "NP",
        "coord": {
            "lon": 82.193932,
            "lat": 29.273291
        }
    },
    {
        "id": 1282826,
        "name": "Salyan",
        "country": "NP",
        "coord": {
            "lon": 82.170303,
            "lat": 28.37858
        }
    },
    {
        "id": 1282878,
        "name": "Ramechhap",
        "country": "NP",
        "coord": {
            "lon": 86.087677,
            "lat": 27.3256
        }
    },
    {
        "id": 1282887,
        "name": "Pyuthan",
        "country": "NP",
        "coord": {
            "lon": 82.88427,
            "lat": 28.088671
        }
    },
    {
        "id": 1283189,
        "name": "Kodari",
        "country": "NP",
        "coord": {
            "lon": 85.948471,
            "lat": 27.952511
        }
    },
    {
        "id": 1283285,
        "name": "Jumla",
        "country": "NP",
        "coord": {
            "lon": 82.18383,
            "lat": 29.274719
        }
    },
    {
        "id": 1283599,
        "name": "Bhojpur",
        "country": "NP",
        "coord": {
            "lon": 81.775551,
            "lat": 27.93565
        }
    },
    {
        "id": 1283600,
        "name": "Bhojpur",
        "country": "NP",
        "coord": {
            "lon": 87.046066,
            "lat": 27.171499
        }
    },
    {
        "id": 1283662,
        "name": "Bardiya",
        "country": "NP",
        "coord": {
            "lon": 81.3536,
            "lat": 28.300579
        }
    },
    {
        "id": 1283742,
        "name": "Achham",
        "country": "NP",
        "coord": {
            "lon": 81.300003,
            "lat": 29.049999
        }
    },
    {
        "id": 6254845,
        "name": "Dipayal",
        "country": "NP",
        "coord": {
            "lon": 80.940002,
            "lat": 29.26083
        }
    },
    {
        "id": 6941691,
        "name": "Chitre",
        "country": "NP",
        "coord": {
            "lon": 83.690758,
            "lat": 28.426729
        }
    },
    {
        "id": 7649119,
        "name": "Surkhet",
        "country": "NP",
        "coord": {
            "lon": 81.778702,
            "lat": 28.51746
        }
    },
    {
        "id": 7969491,
        "name": "Nawal",
        "country": "NP",
        "coord": {
            "lon": 84.102791,
            "lat": 28.64831
        }
    },
    {
        "id": 8199102,
        "name": "kankrabari Dovan",
        "country": "NP",
        "coord": {
            "lon": 85.459343,
            "lat": 27.628811
        }
    }
]