[
    {
        "id": 6413337,
        "name": "Eastern Province",
        "country": "RW",
        "coord": {
            "lon": 30.5,
            "lat": -1.75
        }
    },
    {
        "id": 202068,
        "name": "Kibungo",
        "country": "RW",
        "coord": {
            "lon": 30.5427,
            "lat": -2.1597
        }
    },
    {
        "id": 6413339,
        "name": "Province du Nord",
        "country": "RW",
        "coord": {
            "lon": 29.91667,
            "lat": -1.58333
        }
    },
    {
        "id": 7592960,
        "name": "Byumba Ville",
        "country": "RW",
        "coord": {
            "lon": 30.0634,
            "lat": -1.5734
        }
    },
    {
        "id": 6413340,
        "name": "Western Province",
        "country": "RW",
        "coord": {
            "lon": 29.33333,
            "lat": -2.16667
        }
    },
    {
        "id": 202905,
        "name": "Gisenyi",
        "country": "RW",
        "coord": {
            "lon": 29.25639,
            "lat": -1.70278
        }
    },
    {
        "id": 383968,
        "name": "Huye",
        "country": "RW",
        "coord": {
            "lon": 29.716,
            "lat": -2.5805
        }
    },
    {
        "id": 7572238,
        "name": "Gahondogo",
        "country": "RW",
        "coord": {
            "lon": 29.6185,
            "lat": -1.4856
        }
    },
    {
        "id": 6413338,
        "name": "Ville de Kigali",
        "country": "RW",
        "coord": {
            "lon": 30.08333,
            "lat": -1.91667
        }
    },
    {
        "id": 202061,
        "name": "Kigali",
        "country": "RW",
        "coord": {
            "lon": 30.058849,
            "lat": -1.94995
        }
    },
    {
        "id": 6413341,
        "name": "Province du Sud",
        "country": "RW",
        "coord": {
            "lon": 29.66667,
            "lat": -2.33333
        }
    },
    {
        "id": 203112,
        "name": "Butare",
        "country": "RW",
        "coord": {
            "lon": 29.739441,
            "lat": -2.59667
        }
    },
    {
        "id": 202217,
        "name": "Gitarama",
        "country": "RW",
        "coord": {
            "lon": 29.75667,
            "lat": -2.07444
        }
    },
    {
        "id": 201865,
        "name": "Nzega",
        "country": "RW",
        "coord": {
            "lon": 29.5564,
            "lat": -2.479
        }
    },
    {
        "id": 49518,
        "name": "Republic of Rwanda",
        "country": "RW",
        "coord": {
            "lon": 30,
            "lat": -2
        }
    },
    {
        "id": 7595653,
        "name": "Nyakabanda",
        "country": "RW",
        "coord": {
            "lon": 30.1106,
            "lat": -1.9643
        }
    },
    {
        "id": 7605614,
        "name": "Muhato",
        "country": "RW",
        "coord": {
            "lon": 29.247181,
            "lat": -1.66557
        }
    },
    {
        "id": 7032728,
        "name": "Kannyogo",
        "country": "RW",
        "coord": {
            "lon": 28.907301,
            "lat": -2.4661
        }
    },
    {
        "id": 7319869,
        "name": "Musanze",
        "country": "RW",
        "coord": {
            "lon": 29.633301,
            "lat": -1.49998
        }
    },
    {
        "id": 7595671,
        "name": "Samuduha",
        "country": "RW",
        "coord": {
            "lon": 30.1373,
            "lat": -1.9751
        }
    },
    {
        "id": 7605645,
        "name": "Bonde",
        "country": "RW",
        "coord": {
            "lon": 29.2593,
            "lat": -1.6824
        }
    },
    {
        "id": 201463,
        "name": "Rwamagana",
        "country": "RW",
        "coord": {
            "lon": 30.4347,
            "lat": -1.9487
        }
    },
    {
        "id": 201521,
        "name": "Musanze",
        "country": "RW",
        "coord": {
            "lon": 29.63497,
            "lat": -1.49984
        }
    },
    {
        "id": 202065,
        "name": "Kibuye",
        "country": "RW",
        "coord": {
            "lon": 29.3482,
            "lat": -2.0597
        }
    },
    {
        "id": 202326,
        "name": "Cyangugu",
        "country": "RW",
        "coord": {
            "lon": 28.907499,
            "lat": -2.4846
        }
    },
    {
        "id": 203104,
        "name": "Byumba",
        "country": "RW",
        "coord": {
            "lon": 30.067499,
            "lat": -1.5763
        }
    },
    {
        "id": 202239,
        "name": "Gikongoro",
        "country": "RW",
        "coord": {
            "lon": 29.573891,
            "lat": -2.46397
        }
    },
    {
        "id": 203117,
        "name": "Butare",
        "country": "RW",
        "coord": {
            "lon": 29.743099,
            "lat": -2.6038
        }
    },
    {
        "id": 7062967,
        "name": "Nyanza",
        "country": "RW",
        "coord": {
            "lon": 29.750891,
            "lat": -2.35187
        }
    }
]