[
    {
        "id": 370366,
        "name": "Massa",
        "country": "SD",
        "coord": {
            "lon": 29.466669,
            "lat": 10.98333
        }
    },
    {
        "id": 365618,
        "name": "Tumko",
        "country": "SD",
        "coord": {
            "lon": 24.6,
            "lat": 12.01667
        }
    },
    {
        "id": 378493,
        "name": "Ar Rahad",
        "country": "SD",
        "coord": {
            "lon": 30.65,
            "lat": 12.71667
        }
    },
    {
        "id": 408658,
        "name": "Western Darfur State",
        "country": "SD",
        "coord": {
            "lon": 23,
            "lat": 13
        }
    },
    {
        "id": 7754689,
        "name": "Godosgo",
        "country": "SD",
        "coord": {
            "lon": 23.29376,
            "lat": 12.53233
        }
    },
    {
        "id": 368277,
        "name": "Rabak",
        "country": "SD",
        "coord": {
            "lon": 32.73999,
            "lat": 13.18087
        }
    },
    {
        "id": 408648,
        "name": "Al Jazirah State",
        "country": "SD",
        "coord": {
            "lon": 33.349998,
            "lat": 14.6
        }
    },
    {
        "id": 364706,
        "name": "Umm Ruwaba",
        "country": "SD",
        "coord": {
            "lon": 31.215799,
            "lat": 12.9061
        }
    },
    {
        "id": 367308,
        "name": "Shendi",
        "country": "SD",
        "coord": {
            "lon": 33.434101,
            "lat": 16.6915
        }
    },
    {
        "id": 367544,
        "name": "Sawakin",
        "country": "SD",
        "coord": {
            "lon": 37.3321,
            "lat": 19.1059
        }
    },
    {
        "id": 372386,
        "name": "Kinana",
        "country": "SD",
        "coord": {
            "lon": 33.1712,
            "lat": 14.0361
        }
    },
    {
        "id": 376332,
        "name": "Doka",
        "country": "SD",
        "coord": {
            "lon": 35.76667,
            "lat": 13.51667
        }
    },
    {
        "id": 376450,
        "name": "Dilling",
        "country": "SD",
        "coord": {
            "lon": 29.65,
            "lat": 12.05
        }
    },
    {
        "id": 377690,
        "name": "Berber",
        "country": "SD",
        "coord": {
            "lon": 33.98299,
            "lat": 18.02158
        }
    },
    {
        "id": 377724,
        "name": "Barah",
        "country": "SD",
        "coord": {
            "lon": 30.366671,
            "lat": 13.7
        }
    },
    {
        "id": 378271,
        "name": "As Suki",
        "country": "SD",
        "coord": {
            "lon": 33.883331,
            "lat": 13.31667
        }
    },
    {
        "id": 378459,
        "name": "Ar Ruseris",
        "country": "SD",
        "coord": {
            "lon": 34.386902,
            "lat": 11.8659
        }
    },
    {
        "id": 378699,
        "name": "An Nuhud",
        "country": "SD",
        "coord": {
            "lon": 28.433331,
            "lat": 12.7
        }
    },
    {
        "id": 379102,
        "name": "Al Mijlad",
        "country": "SD",
        "coord": {
            "lon": 27.73333,
            "lat": 11.03333
        }
    },
    {
        "id": 379149,
        "name": "Al Manaqil",
        "country": "SD",
        "coord": {
            "lon": 32.989101,
            "lat": 14.2459
        }
    },
    {
        "id": 379416,
        "name": "Al Hawatah",
        "country": "SD",
        "coord": {
            "lon": 34.633331,
            "lat": 13.41667
        }
    },
    {
        "id": 379427,
        "name": "Al Hasaheisa",
        "country": "SD",
        "coord": {
            "lon": 33.298359,
            "lat": 14.75264
        }
    },
    {
        "id": 379630,
        "name": "El Bauga",
        "country": "SD",
        "coord": {
            "lon": 33.908119,
            "lat": 18.261959
        }
    },
    {
        "id": 380129,
        "name": "Ad Diwem",
        "country": "SD",
        "coord": {
            "lon": 32.3116,
            "lat": 14.0012
        }
    },
    {
        "id": 380151,
        "name": "Ad Dindar",
        "country": "SD",
        "coord": {
            "lon": 34.166672,
            "lat": 13.2
        }
    },
    {
        "id": 380173,
        "name": "Ed Damer",
        "country": "SD",
        "coord": {
            "lon": 33.959171,
            "lat": 17.592779
        }
    },
    {
        "id": 408661,
        "name": "Southern Kordofan State",
        "country": "SD",
        "coord": {
            "lon": 30,
            "lat": 11
        }
    },
    {
        "id": 408654,
        "name": "Blue Nile State",
        "country": "SD",
        "coord": {
            "lon": 34.099998,
            "lat": 11.15
        }
    },
    {
        "id": 7033552,
        "name": "Baq\u012bs",
        "country": "SD",
        "coord": {
            "lon": 34.1847,
            "lat": 11.5747
        }
    },
    {
        "id": 408660,
        "name": "Southern Darfur State",
        "country": "SD",
        "coord": {
            "lon": 25.25,
            "lat": 11.15
        }
    },
    {
        "id": 408669,
        "name": "Sinnar State",
        "country": "SD",
        "coord": {
            "lon": 34,
            "lat": 13
        }
    },
    {
        "id": 373463,
        "name": "Jabal Mayyah",
        "country": "SD",
        "coord": {
            "lon": 33.333328,
            "lat": 13.5
        }
    },
    {
        "id": 379234,
        "name": "Al Kodab",
        "country": "SD",
        "coord": {
            "lon": 32.604172,
            "lat": 16.23333
        }
    },
    {
        "id": 363533,
        "name": "Zalingei",
        "country": "SD",
        "coord": {
            "lon": 23.47406,
            "lat": 12.9096
        }
    },
    {
        "id": 366323,
        "name": "Tokar",
        "country": "SD",
        "coord": {
            "lon": 37.729,
            "lat": 18.4254
        }
    },
    {
        "id": 366426,
        "name": "Tandalti",
        "country": "SD",
        "coord": {
            "lon": 31.866671,
            "lat": 13.01667
        }
    },
    {
        "id": 366847,
        "name": "Sinja",
        "country": "SD",
        "coord": {
            "lon": 33.933331,
            "lat": 13.15
        }
    },
    {
        "id": 370838,
        "name": "Maiurno",
        "country": "SD",
        "coord": {
            "lon": 33.666672,
            "lat": 13.41667
        }
    },
    {
        "id": 371870,
        "name": "Kuraymah",
        "country": "SD",
        "coord": {
            "lon": 31.85,
            "lat": 18.549999
        }
    },
    {
        "id": 379303,
        "name": "El Geneina",
        "country": "SD",
        "coord": {
            "lon": 22.450001,
            "lat": 13.45
        }
    },
    {
        "id": 379406,
        "name": "Al Hilaliyya",
        "country": "SD",
        "coord": {
            "lon": 33.234001,
            "lat": 14.9398
        }
    },
    {
        "id": 366755,
        "name": "Republic of the Sudan",
        "country": "SD",
        "coord": {
            "lon": 30,
            "lat": 16
        }
    },
    {
        "id": 408664,
        "name": "River Nile State",
        "country": "SD",
        "coord": {
            "lon": 33.200001,
            "lat": 19
        }
    },
    {
        "id": 443868,
        "name": "El Ghadoora",
        "country": "SD",
        "coord": {
            "lon": 33.1394,
            "lat": 16.518
        }
    },
    {
        "id": 408646,
        "name": "Red Sea State",
        "country": "SD",
        "coord": {
            "lon": 36,
            "lat": 20
        }
    },
    {
        "id": 443909,
        "name": "Sal\u016bm",
        "country": "SD",
        "coord": {
            "lon": 37.110828,
            "lat": 19.389441
        }
    },
    {
        "id": 379302,
        "name": "Al Junaynah Fort",
        "country": "SD",
        "coord": {
            "lon": 22.466669,
            "lat": 13.48333
        }
    },
    {
        "id": 379253,
        "name": "Khartoum State",
        "country": "SD",
        "coord": {
            "lon": 33,
            "lat": 15.8
        }
    },
    {
        "id": 367935,
        "name": "Rumaylah",
        "country": "SD",
        "coord": {
            "lon": 32.51667,
            "lat": 15.56667
        }
    },
    {
        "id": 365286,
        "name": "Um B\u0101rid",
        "country": "SD",
        "coord": {
            "lon": 34.321098,
            "lat": 12.4057
        }
    },
    {
        "id": 377039,
        "name": "Port Sudan",
        "country": "SD",
        "coord": {
            "lon": 37.216438,
            "lat": 19.617451
        }
    },
    {
        "id": 380308,
        "name": "Abyei",
        "country": "SD",
        "coord": {
            "lon": 28.434931,
            "lat": 9.59525
        }
    },
    {
        "id": 371101,
        "name": "Ludu",
        "country": "SD",
        "coord": {
            "lon": 34.283329,
            "lat": 10.55
        }
    },
    {
        "id": 379251,
        "name": "Khartoum North",
        "country": "SD",
        "coord": {
            "lon": 32.625832,
            "lat": 15.62889
        }
    },
    {
        "id": 408663,
        "name": "Kassala State",
        "country": "SD",
        "coord": {
            "lon": 35.650002,
            "lat": 15.9
        }
    },
    {
        "id": 372753,
        "name": "Kassala",
        "country": "SD",
        "coord": {
            "lon": 36.399979,
            "lat": 15.45099
        }
    },
    {
        "id": 378389,
        "name": "Northern State",
        "country": "SD",
        "coord": {
            "lon": 29.5,
            "lat": 19.299999
        }
    },
    {
        "id": 364132,
        "name": "W\u0101d\u012b \u1e28alf\u0101\u2019",
        "country": "SD",
        "coord": {
            "lon": 31.35,
            "lat": 21.799999
        }
    },
    {
        "id": 6992531,
        "name": "Nasir",
        "country": "SD",
        "coord": {
            "lon": 32.5634,
            "lat": 15.5894
        }
    },
    {
        "id": 6969341,
        "name": "Siy\u0101mt\u012bt Tisim\u012bt",
        "country": "SD",
        "coord": {
            "lon": 37.123798,
            "lat": 19.452101
        }
    },
    {
        "id": 408667,
        "name": "Northern Kordofan State",
        "country": "SD",
        "coord": {
            "lon": 29.5,
            "lat": 14.5
        }
    },
    {
        "id": 379003,
        "name": "El Obeid",
        "country": "SD",
        "coord": {
            "lon": 30.21669,
            "lat": 13.18421
        }
    },
    {
        "id": 408653,
        "name": "White Nile State",
        "country": "SD",
        "coord": {
            "lon": 32.400002,
            "lat": 13.5
        }
    },
    {
        "id": 7024903,
        "name": "Tag\u016bg",
        "country": "SD",
        "coord": {
            "lon": 36.364799,
            "lat": 15.4071
        }
    },
    {
        "id": 408649,
        "name": "Al Qadarif State",
        "country": "SD",
        "coord": {
            "lon": 35.349998,
            "lat": 14.05
        }
    },
    {
        "id": 378020,
        "name": "\u2018Az\u0101zah",
        "country": "SD",
        "coord": {
            "lon": 35.299999,
            "lat": 14.13333
        }
    },
    {
        "id": 408666,
        "name": "Northern Darfur State",
        "country": "SD",
        "coord": {
            "lon": 25.5,
            "lat": 16
        }
    },
    {
        "id": 379555,
        "name": "El Fasher",
        "country": "SD",
        "coord": {
            "lon": 25.34936,
            "lat": 13.62793
        }
    },
    {
        "id": 375831,
        "name": "El \u2018Urdi",
        "country": "SD",
        "coord": {
            "lon": 30.450001,
            "lat": 19.16667
        }
    },
    {
        "id": 378361,
        "name": "Ash Shiqlah",
        "country": "SD",
        "coord": {
            "lon": 34.01083,
            "lat": 17.676109
        }
    },
    {
        "id": 364103,
        "name": "Wad Medani",
        "country": "SD",
        "coord": {
            "lon": 33.51989,
            "lat": 14.40118
        }
    },
    {
        "id": 365137,
        "name": "Omdurman",
        "country": "SD",
        "coord": {
            "lon": 32.47773,
            "lat": 15.64453
        }
    },
    {
        "id": 367644,
        "name": "Sinnar",
        "country": "SD",
        "coord": {
            "lon": 33.567181,
            "lat": 13.56907
        }
    },
    {
        "id": 371760,
        "name": "Kosti",
        "country": "SD",
        "coord": {
            "lon": 32.663471,
            "lat": 13.1629
        }
    },
    {
        "id": 373141,
        "name": "Kadugli",
        "country": "SD",
        "coord": {
            "lon": 29.716669,
            "lat": 11.01667
        }
    },
    {
        "id": 378231,
        "name": "Atbara",
        "country": "SD",
        "coord": {
            "lon": 33.986382,
            "lat": 17.702169
        }
    },
    {
        "id": 379014,
        "name": "Al Qitena",
        "country": "SD",
        "coord": {
            "lon": 32.366798,
            "lat": 14.8648
        }
    },
    {
        "id": 379252,
        "name": "Khartoum",
        "country": "SD",
        "coord": {
            "lon": 32.53241,
            "lat": 15.55177
        }
    },
    {
        "id": 380174,
        "name": "Ad-Damazin",
        "country": "SD",
        "coord": {
            "lon": 34.3592,
            "lat": 11.7891
        }
    },
    {
        "id": 380348,
        "name": "Abu Zabad",
        "country": "SD",
        "coord": {
            "lon": 29.25,
            "lat": 12.35
        }
    },
    {
        "id": 380757,
        "name": "Abu Jibeha",
        "country": "SD",
        "coord": {
            "lon": 31.2285,
            "lat": 11.4562
        }
    },
    {
        "id": 363417,
        "name": "Dongola",
        "country": "SD",
        "coord": {
            "lon": 30.48333,
            "lat": 19.16667
        }
    },
    {
        "id": 364027,
        "name": "Wagar",
        "country": "SD",
        "coord": {
            "lon": 36.203201,
            "lat": 16.1525
        }
    },
    {
        "id": 364071,
        "name": "Wad Rawah",
        "country": "SD",
        "coord": {
            "lon": 33.139721,
            "lat": 15.16028
        }
    },
    {
        "id": 364216,
        "name": "Wad az Zaki",
        "country": "SD",
        "coord": {
            "lon": 32.206501,
            "lat": 14.4619
        }
    },
    {
        "id": 364933,
        "name": "Umm Kaddadah",
        "country": "SD",
        "coord": {
            "lon": 26.68759,
            "lat": 13.60169
        }
    },
    {
        "id": 364949,
        "name": "Um Jar Al Gharbiyya",
        "country": "SD",
        "coord": {
            "lon": 32.407799,
            "lat": 13.8013
        }
    },
    {
        "id": 366487,
        "name": "Talodi",
        "country": "SD",
        "coord": {
            "lon": 30.3797,
            "lat": 10.63246
        }
    },
    {
        "id": 369004,
        "name": "Nyala",
        "country": "SD",
        "coord": {
            "lon": 24.883329,
            "lat": 12.05
        }
    },
    {
        "id": 370481,
        "name": "Marawi",
        "country": "SD",
        "coord": {
            "lon": 31.816669,
            "lat": 18.48333
        }
    },
    {
        "id": 370510,
        "name": "Marabba",
        "country": "SD",
        "coord": {
            "lon": 32.183331,
            "lat": 12.35
        }
    },
    {
        "id": 371745,
        "name": "Kutum",
        "country": "SD",
        "coord": {
            "lon": 24.66667,
            "lat": 14.2
        }
    },
    {
        "id": 371827,
        "name": "Kurmuk",
        "country": "SD",
        "coord": {
            "lon": 34.283329,
            "lat": 10.55
        }
    },
    {
        "id": 372801,
        "name": "Karmah an Nuzul",
        "country": "SD",
        "coord": {
            "lon": 30.41667,
            "lat": 19.633329
        }
    },
    {
        "id": 375046,
        "name": "Gebeit",
        "country": "SD",
        "coord": {
            "lon": 36.316669,
            "lat": 21.066669
        }
    },
    {
        "id": 375192,
        "name": "Jalqani",
        "country": "SD",
        "coord": {
            "lon": 34.218601,
            "lat": 12.4486
        }
    },
    {
        "id": 378502,
        "name": "Aroma",
        "country": "SD",
        "coord": {
            "lon": 36.133331,
            "lat": 15.81667
        }
    },
    {
        "id": 378543,
        "name": "Argo",
        "country": "SD",
        "coord": {
            "lon": 30.41667,
            "lat": 19.51667
        }
    },
    {
        "id": 379062,
        "name": "Al Qadarif",
        "country": "SD",
        "coord": {
            "lon": 35.383438,
            "lat": 14.03493
        }
    },
    {
        "id": 379080,
        "name": "Al Masallamiyya",
        "country": "SD",
        "coord": {
            "lon": 33.337299,
            "lat": 14.5748
        }
    },
    {
        "id": 379127,
        "name": "El Matama",
        "country": "SD",
        "coord": {
            "lon": 33.356499,
            "lat": 16.709499
        }
    },
    {
        "id": 379198,
        "name": "Al Lagowa",
        "country": "SD",
        "coord": {
            "lon": 29.133329,
            "lat": 11.4
        }
    },
    {
        "id": 379261,
        "name": "Al Kiremit al Arakiyyin",
        "country": "SD",
        "coord": {
            "lon": 32.943699,
            "lat": 14.3476
        }
    },
    {
        "id": 379272,
        "name": "Al Kawa",
        "country": "SD",
        "coord": {
            "lon": 32.499599,
            "lat": 13.7463
        }
    },
    {
        "id": 379535,
        "name": "Al Fulah",
        "country": "SD",
        "coord": {
            "lon": 28.357861,
            "lat": 11.73292
        }
    },
    {
        "id": 380186,
        "name": "Ad Dabbah",
        "country": "SD",
        "coord": {
            "lon": 30.950001,
            "lat": 18.049999
        }
    }
]