[
    {
        "id": 3384653,
        "name": "Bakrakondre",
        "country": "SR",
        "coord": {
            "lon": -55.700001,
            "lat": 3.8
        }
    },
    {
        "id": 3384481,
        "name": "Distrikt Brokopondo",
        "country": "SR",
        "coord": {
            "lon": -55.166672,
            "lat": 4.75
        }
    },
    {
        "id": 3383583,
        "name": "Mar\u00e9chalskondre",
        "country": "SR",
        "coord": {
            "lon": -55.083328,
            "lat": 5.26667
        }
    },
    {
        "id": 3383062,
        "name": "Distrikt Sipaliwini",
        "country": "SR",
        "coord": {
            "lon": -56,
            "lat": 4
        }
    },
    {
        "id": 3384728,
        "name": "Appikalo",
        "country": "SR",
        "coord": {
            "lon": -56.25,
            "lat": 2.11667
        }
    },
    {
        "id": 3382998,
        "name": "Republic of Suriname",
        "country": "SR",
        "coord": {
            "lon": -56,
            "lat": 4
        }
    },
    {
        "id": 3383023,
        "name": "Stoelmanseiland",
        "country": "SR",
        "coord": {
            "lon": -54.416672,
            "lat": 4.35
        }
    },
    {
        "id": 3383329,
        "name": "Distrikt Paramaribo",
        "country": "SR",
        "coord": {
            "lon": -55.166672,
            "lat": 5.86667
        }
    },
    {
        "id": 3383438,
        "name": "Distrikt Nickerie",
        "country": "SR",
        "coord": {
            "lon": -56.833328,
            "lat": 5.66667
        }
    },
    {
        "id": 3383427,
        "name": "Nieuw Nickerie",
        "country": "SR",
        "coord": {
            "lon": -56.98333,
            "lat": 5.95
        }
    },
    {
        "id": 3382761,
        "name": "Distrikt Wanica",
        "country": "SR",
        "coord": {
            "lon": -55.25,
            "lat": 5.75
        }
    },
    {
        "id": 3383714,
        "name": "Lelydorp",
        "country": "SR",
        "coord": {
            "lon": -55.23333,
            "lat": 5.7
        }
    },
    {
        "id": 3383337,
        "name": "Distrikt Para",
        "country": "SR",
        "coord": {
            "lon": -55.333328,
            "lat": 5.41667
        }
    },
    {
        "id": 3383384,
        "name": "Onverwacht",
        "country": "SR",
        "coord": {
            "lon": -55.183331,
            "lat": 5.58333
        }
    },
    {
        "id": 3383751,
        "name": "Landsboerderij",
        "country": "SR",
        "coord": {
            "lon": -55.216671,
            "lat": 5.81667
        }
    },
    {
        "id": 3382648,
        "name": "Zorg en Hoop",
        "country": "SR",
        "coord": {
            "lon": -55.200001,
            "lat": 5.81667
        }
    },
    {
        "id": 3382670,
        "name": "Zanderij",
        "country": "SR",
        "coord": {
            "lon": -55.200001,
            "lat": 5.45
        }
    },
    {
        "id": 3383330,
        "name": "Paramaribo",
        "country": "SR",
        "coord": {
            "lon": -55.166821,
            "lat": 5.86638
        }
    },
    {
        "id": 3382783,
        "name": "Wageningen",
        "country": "SR",
        "coord": {
            "lon": -56.683331,
            "lat": 5.76667
        }
    },
    {
        "id": 3382867,
        "name": "Totness",
        "country": "SR",
        "coord": {
            "lon": -56.316669,
            "lat": 5.88333
        }
    },
    {
        "id": 3383434,
        "name": "Nieuw Amsterdam",
        "country": "SR",
        "coord": {
            "lon": -55.083328,
            "lat": 5.88333
        }
    },
    {
        "id": 3383494,
        "name": "Moengo",
        "country": "SR",
        "coord": {
            "lon": -54.400002,
            "lat": 5.61667
        }
    },
    {
        "id": 3383570,
        "name": "Marienburg",
        "country": "SR",
        "coord": {
            "lon": -55.021591,
            "lat": 5.84691
        }
    },
    {
        "id": 3384125,
        "name": "Groningen",
        "country": "SR",
        "coord": {
            "lon": -55.466671,
            "lat": 5.8
        }
    },
    {
        "id": 3384475,
        "name": "Brownsweg",
        "country": "SR",
        "coord": {
            "lon": -55.166672,
            "lat": 5.01667
        }
    },
    {
        "id": 3384482,
        "name": "Brokopondo",
        "country": "SR",
        "coord": {
            "lon": -54.966671,
            "lat": 5.06667
        }
    },
    {
        "id": 3384792,
        "name": "Albina",
        "country": "SR",
        "coord": {
            "lon": -54.049999,
            "lat": 5.5
        }
    }
]