[
    {
        "id": 3513332,
        "name": "Rockland",
        "country": "SX",
        "coord": {
            "lon": -63.049999,
            "lat": 18.033331
        }
    },
    {
        "id": 3513438,
        "name": "One Hoe",
        "country": "SX",
        "coord": {
            "lon": -63.033329,
            "lat": 18.049999
        }
    },
    {
        "id": 7609695,
        "name": "Land Sint Maarten",
        "country": "SX",
        "coord": {
            "lon": -63.066669,
            "lat": 18.04167
        }
    },
    {
        "id": 3513392,
        "name": "Philipsburg",
        "country": "SX",
        "coord": {
            "lon": -63.045818,
            "lat": 18.025999
        }
    },
    {
        "id": 3513794,
        "name": "Cul de Sac",
        "country": "SX",
        "coord": {
            "lon": -63.065418,
            "lat": 18.038679
        }
    }
]