[
    {
        "id": 3576979,
        "name": "Kew",
        "country": "TC",
        "coord": {
            "lon": -72.033333,
            "lat": 21.9
        }
    },
    {
        "id": 3576909,
        "name": "West Road",
        "country": "TC",
        "coord": {
            "lon": -71.133331,
            "lat": 21.466669
        }
    },
    {
        "id": 3576916,
        "name": "Turks and Caicos Islands",
        "country": "TC",
        "coord": {
            "lon": -71.583328,
            "lat": 21.73333
        }
    },
    {
        "id": 3576994,
        "name": "Cockburn Town",
        "country": "TC",
        "coord": {
            "lon": -71.141876,
            "lat": 21.46122
        }
    },
    {
        "id": 3577055,
        "name": "Back Salina",
        "country": "TC",
        "coord": {
            "lon": -71.133331,
            "lat": 21.450001
        }
    },
    {
        "id": 3577004,
        "name": "Five Cays Settlement",
        "country": "TC",
        "coord": {
            "lon": -72.25,
            "lat": 21.75
        }
    }
]