[
    {
        "id": 2426370,
        "name": "Oum Hadjer",
        "country": "TD",
        "coord": {
            "lon": 19.6966,
            "lat": 13.2954
        }
    },
    {
        "id": 2427336,
        "name": "Moussoro",
        "country": "TD",
        "coord": {
            "lon": 16.49007,
            "lat": 13.64084
        }
    },
    {
        "id": 2425714,
        "name": "Serd\u00e9g\u00e9",
        "country": "TD",
        "coord": {
            "lon": 17.01667,
            "lat": 21.33333
        }
    },
    {
        "id": 2428042,
        "name": "Mboursou Lere",
        "country": "TD",
        "coord": {
            "lon": 14.1539,
            "lat": 9.7639
        }
    },
    {
        "id": 2428228,
        "name": "Massakory",
        "country": "TD",
        "coord": {
            "lon": 15.72927,
            "lat": 12.996
        }
    },
    {
        "id": 2429605,
        "name": "Koumra",
        "country": "TD",
        "coord": {
            "lon": 17.553921,
            "lat": 8.91256
        }
    },
    {
        "id": 2433055,
        "name": "Dourbali",
        "country": "TD",
        "coord": {
            "lon": 15.86323,
            "lat": 11.80909
        }
    },
    {
        "id": 7603258,
        "name": "R\u00e9gion du Tibesti",
        "country": "TD",
        "coord": {
            "lon": 16.66667,
            "lat": 20.33333
        }
    },
    {
        "id": 2424015,
        "name": "Zouar",
        "country": "TD",
        "coord": {
            "lon": 16.527781,
            "lat": 20.45833
        }
    },
    {
        "id": 2429344,
        "name": "Kyabe",
        "country": "TD",
        "coord": {
            "lon": 18.944929,
            "lat": 9.45149
        }
    },
    {
        "id": 2435124,
        "name": "Bitkine",
        "country": "TD",
        "coord": {
            "lon": 18.2138,
            "lat": 11.9801
        }
    },
    {
        "id": 2435508,
        "name": "Benoy",
        "country": "TD",
        "coord": {
            "lon": 16.31991,
            "lat": 8.98327
        }
    },
    {
        "id": 2434508,
        "name": "Republic of Chad",
        "country": "TD",
        "coord": {
            "lon": 19,
            "lat": 15
        }
    },
    {
        "id": 2429060,
        "name": "R\u00e9gion du Logone Occidental",
        "country": "TD",
        "coord": {
            "lon": 15.87236,
            "lat": 8.7529
        }
    },
    {
        "id": 2427455,
        "name": "Moundou",
        "country": "TD",
        "coord": {
            "lon": 16.08333,
            "lat": 8.56667
        }
    },
    {
        "id": 242246,
        "name": "R\u00e9gion du Ouadda\u00ef",
        "country": "TD",
        "coord": {
            "lon": 21.25,
            "lat": 13.5
        }
    },
    {
        "id": 245785,
        "name": "Abeche",
        "country": "TD",
        "coord": {
            "lon": 20.832399,
            "lat": 13.82916
        }
    },
    {
        "id": 2434478,
        "name": "R\u00e9gion du Chari-Baguirmi",
        "country": "TD",
        "coord": {
            "lon": 16.25,
            "lat": 11.34
        }
    },
    {
        "id": 2427123,
        "name": "NDjamena",
        "country": "TD",
        "coord": {
            "lon": 15.0444,
            "lat": 12.10672
        }
    },
    {
        "id": 2431555,
        "name": "R\u00e9gion du Gu\u00e9ra",
        "country": "TD",
        "coord": {
            "lon": 18.5,
            "lat": 11.5
        }
    },
    {
        "id": 2427637,
        "name": "Mongo",
        "country": "TD",
        "coord": {
            "lon": 18.693029,
            "lat": 12.18441
        }
    },
    {
        "id": 2429058,
        "name": "R\u00e9gion du Logone Oriental",
        "country": "TD",
        "coord": {
            "lon": 16.42,
            "lat": 8.25
        }
    },
    {
        "id": 2435014,
        "name": "Bogomia I",
        "country": "TD",
        "coord": {
            "lon": 15.6682,
            "lat": 7.7962
        }
    },
    {
        "id": 7602866,
        "name": "R\u00e9gion du Borkou",
        "country": "TD",
        "coord": {
            "lon": 18.5,
            "lat": 18.25
        }
    },
    {
        "id": 2432678,
        "name": "Largeau",
        "country": "TD",
        "coord": {
            "lon": 19.10428,
            "lat": 17.925699
        }
    },
    {
        "id": 7603253,
        "name": "R\u00e9gion du Mayo-K\u00e9bbi Ouest",
        "country": "TD",
        "coord": {
            "lon": 14.75,
            "lat": 9.33
        }
    },
    {
        "id": 2426240,
        "name": "Pala",
        "country": "TD",
        "coord": {
            "lon": 14.9046,
            "lat": 9.3642
        }
    },
    {
        "id": 242048,
        "name": "R\u00e9gion du Salamat",
        "country": "TD",
        "coord": {
            "lon": 20.5,
            "lat": 11
        }
    },
    {
        "id": 245338,
        "name": "Am Timan",
        "country": "TD",
        "coord": {
            "lon": 20.2827,
            "lat": 11.0297
        }
    },
    {
        "id": 2432193,
        "name": "Gazira",
        "country": "TD",
        "coord": {
            "lon": 18.67333,
            "lat": 12.17661
        }
    },
    {
        "id": 2429323,
        "name": "R\u00e9gion du Lac",
        "country": "TD",
        "coord": {
            "lon": 14.5,
            "lat": 13.5
        }
    },
    {
        "id": 2425296,
        "name": "Tandal",
        "country": "TD",
        "coord": {
            "lon": 14.71667,
            "lat": 13.45
        }
    },
    {
        "id": 7603251,
        "name": "R\u00e9gion du Hadjer-Lamis",
        "country": "TD",
        "coord": {
            "lon": 16.167,
            "lat": 12.68
        }
    },
    {
        "id": 2434985,
        "name": "Bokoro",
        "country": "TD",
        "coord": {
            "lon": 17.056801,
            "lat": 12.3807
        }
    },
    {
        "id": 7603254,
        "name": "R\u00e9gion de la Ville de N'Djam\u00e9na",
        "country": "TD",
        "coord": {
            "lon": 15.06666,
            "lat": 12.11666
        }
    },
    {
        "id": 2428334,
        "name": "Mardan No\u00fbm",
        "country": "TD",
        "coord": {
            "lon": 15.05,
            "lat": 12.13333
        }
    },
    {
        "id": 2435899,
        "name": "R\u00e9gion du Batha",
        "country": "TD",
        "coord": {
            "lon": 19,
            "lat": 14
        }
    },
    {
        "id": 2426991,
        "name": "Ngardiana",
        "country": "TD",
        "coord": {
            "lon": 18.297501,
            "lat": 13.2341
        }
    },
    {
        "id": 2429425,
        "name": "Koutou-B\u00e9bo",
        "country": "TD",
        "coord": {
            "lon": 16.08563,
            "lat": 8.62337
        }
    },
    {
        "id": 243503,
        "name": "Kamina",
        "country": "TD",
        "coord": {
            "lon": 20.83333,
            "lat": 13.83333
        }
    },
    {
        "id": 2428132,
        "name": "R\u00e9gion du Mayo-K\u00e9bbi Est",
        "country": "TD",
        "coord": {
            "lon": 15.83,
            "lat": 10
        }
    },
    {
        "id": 2434910,
        "name": "Bongor",
        "country": "TD",
        "coord": {
            "lon": 15.37222,
            "lat": 10.28056
        }
    },
    {
        "id": 2427315,
        "name": "R\u00e9gion du Moyen-Chari",
        "country": "TD",
        "coord": {
            "lon": 18.5,
            "lat": 9.3333
        }
    },
    {
        "id": 2436067,
        "name": "Banda",
        "country": "TD",
        "coord": {
            "lon": 18.365299,
            "lat": 9.1561
        }
    },
    {
        "id": 2425287,
        "name": "R\u00e9gion du Tandjil\u00e9",
        "country": "TD",
        "coord": {
            "lon": 16.5,
            "lat": 9.5
        }
    },
    {
        "id": 2429296,
        "name": "Lai",
        "country": "TD",
        "coord": {
            "lon": 16.298901,
            "lat": 9.3952
        }
    },
    {
        "id": 2425791,
        "name": "Sagh",
        "country": "TD",
        "coord": {
            "lon": 18.3923,
            "lat": 9.1429
        }
    },
    {
        "id": 7603255,
        "name": "R\u00e9gion du Barh el Gazel",
        "country": "TD",
        "coord": {
            "lon": 16.91667,
            "lat": 14.66667
        }
    },
    {
        "id": 2428231,
        "name": "Massaguet",
        "country": "TD",
        "coord": {
            "lon": 15.43647,
            "lat": 12.47554
        }
    },
    {
        "id": 2430873,
        "name": "R\u00e9gion du Kanem",
        "country": "TD",
        "coord": {
            "lon": 15,
            "lat": 15
        }
    },
    {
        "id": 2428394,
        "name": "Mao",
        "country": "TD",
        "coord": {
            "lon": 15.3103,
            "lat": 14.12116
        }
    },
    {
        "id": 7603252,
        "name": "R\u00e9gion du Mandoul",
        "country": "TD",
        "coord": {
            "lon": 17.91567,
            "lat": 8.32942
        }
    },
    {
        "id": 2430506,
        "name": "Kelo",
        "country": "TD",
        "coord": {
            "lon": 15.80658,
            "lat": 9.30859
        }
    },
    {
        "id": 2433437,
        "name": "Doba",
        "country": "TD",
        "coord": {
            "lon": 16.85,
            "lat": 8.65
        }
    },
    {
        "id": 2436400,
        "name": "Ati",
        "country": "TD",
        "coord": {
            "lon": 18.3353,
            "lat": 13.2154
        }
    },
    {
        "id": 243590,
        "name": "Iriba",
        "country": "TD",
        "coord": {
            "lon": 22.25,
            "lat": 15.11667
        }
    },
    {
        "id": 243783,
        "name": "Goz Beida",
        "country": "TD",
        "coord": {
            "lon": 20.549999,
            "lat": 13.95
        }
    },
    {
        "id": 244878,
        "name": "Biltine",
        "country": "TD",
        "coord": {
            "lon": 20.91667,
            "lat": 14.53333
        }
    },
    {
        "id": 245669,
        "name": "Adre",
        "country": "TD",
        "coord": {
            "lon": 22.200001,
            "lat": 13.46667
        }
    },
    {
        "id": 2427036,
        "name": "Ngama",
        "country": "TD",
        "coord": {
            "lon": 17.16667,
            "lat": 11.78333
        }
    },
    {
        "id": 2427697,
        "name": "Moissala",
        "country": "TD",
        "coord": {
            "lon": 17.7663,
            "lat": 8.3404
        }
    },
    {
        "id": 2427949,
        "name": "Melfi",
        "country": "TD",
        "coord": {
            "lon": 17.935499,
            "lat": 11.0598
        }
    },
    {
        "id": 2428216,
        "name": "Massenya",
        "country": "TD",
        "coord": {
            "lon": 16.1705,
            "lat": 11.4039
        }
    },
    {
        "id": 2431573,
        "name": "Guelendeng",
        "country": "TD",
        "coord": {
            "lon": 15.5501,
            "lat": 10.91762
        }
    },
    {
        "id": 2431724,
        "name": "Gounou Gaya",
        "country": "TD",
        "coord": {
            "lon": 15.5132,
            "lat": 9.6294
        }
    },
    {
        "id": 2431736,
        "name": "Goundi",
        "country": "TD",
        "coord": {
            "lon": 17.365971,
            "lat": 9.36267
        }
    },
    {
        "id": 2434584,
        "name": "Bousso",
        "country": "TD",
        "coord": {
            "lon": 16.7117,
            "lat": 10.4795
        }
    },
    {
        "id": 2434979,
        "name": "Bol",
        "country": "TD",
        "coord": {
            "lon": 14.71472,
            "lat": 13.45861
        }
    },
    {
        "id": 2435474,
        "name": "Bere",
        "country": "TD",
        "coord": {
            "lon": 16.155199,
            "lat": 9.3202
        }
    },
    {
        "id": 2435708,
        "name": "Beinamar",
        "country": "TD",
        "coord": {
            "lon": 15.3813,
            "lat": 8.6698
        }
    },
    {
        "id": 2435837,
        "name": "Beboto",
        "country": "TD",
        "coord": {
            "lon": 16.93898,
            "lat": 8.26682
        }
    },
    {
        "id": 2435854,
        "name": "Bebedja",
        "country": "TD",
        "coord": {
            "lon": 16.566,
            "lat": 8.6761
        }
    },
    {
        "id": 2436628,
        "name": "Aozou",
        "country": "TD",
        "coord": {
            "lon": 17.4275,
            "lat": 21.8375
        }
    }
]