[
    {
        "id": 4032279,
        "name": "Tongatapu",
        "country": "TO",
        "coord": {
            "lon": -175.166672,
            "lat": -21.16667
        }
    },
    {
        "id": 4032323,
        "name": "Talafo\u2018ou",
        "country": "TO",
        "coord": {
            "lon": -175.100006,
            "lat": -21.133329
        }
    },
    {
        "id": 4032283,
        "name": "Kingdom of Tonga",
        "country": "TO",
        "coord": {
            "lon": -175,
            "lat": -20
        }
    },
    {
        "id": 4032231,
        "name": "Vava`u",
        "country": "TO",
        "coord": {
            "lon": -174,
            "lat": -18.66667
        }
    },
    {
        "id": 4032420,
        "name": "Neiafu",
        "country": "TO",
        "coord": {
            "lon": -173.983337,
            "lat": -18.65
        }
    },
    {
        "id": 4032402,
        "name": "Nukualofa",
        "country": "TO",
        "coord": {
            "lon": -175.199997,
            "lat": -21.133329
        }
    },
    {
        "id": 4032243,
        "name": "Vaini",
        "country": "TO",
        "coord": {
            "lon": -175.199997,
            "lat": -21.200001
        }
    },
    {
        "id": 4032369,
        "name": "Pangai",
        "country": "TO",
        "coord": {
            "lon": -174.350006,
            "lat": -19.799999
        }
    },
    {
        "id": 4032384,
        "name": "Ohonua",
        "country": "TO",
        "coord": {
            "lon": -174.949997,
            "lat": -21.33333
        }
    },
    {
        "id": 4032623,
        "name": "Havelu",
        "country": "TO",
        "coord": {
            "lon": -175.216675,
            "lat": -21.15
        }
    }
]