[
    {
        "id": 745042,
        "name": "\u0130stanbul",
        "country": "TR",
        "coord": {
            "lon": 28.983311,
            "lat": 41.03508
        }
    },
    {
        "id": 749184,
        "name": "Ciciler",
        "country": "TR",
        "coord": {
            "lon": 30.063601,
            "lat": 40.442982
        }
    },
    {
        "id": 750594,
        "name": "Bilmece",
        "country": "TR",
        "coord": {
            "lon": 36.150002,
            "lat": 41.150002
        }
    },
    {
        "id": 742902,
        "name": "Kocaali",
        "country": "TR",
        "coord": {
            "lon": 30.852779,
            "lat": 41.05336
        }
    },
    {
        "id": 304825,
        "name": "Manisa",
        "country": "TR",
        "coord": {
            "lon": 28.16667,
            "lat": 38.833328
        }
    },
    {
        "id": 306536,
        "name": "K\u00f6pr\u00fcba\u015f\u0131",
        "country": "TR",
        "coord": {
            "lon": 31.216669,
            "lat": 39.283329
        }
    },
    {
        "id": 6970803,
        "name": "A\u015fa\u011f\u0131 Alada\u011f",
        "country": "TR",
        "coord": {
            "lon": 43.035519,
            "lat": 39.420959
        }
    },
    {
        "id": 751916,
        "name": "Ar\u0131kl\u0131ba\u011flar\u0131",
        "country": "TR",
        "coord": {
            "lon": 32.349998,
            "lat": 40.049999
        }
    },
    {
        "id": 325363,
        "name": "Adana",
        "country": "TR",
        "coord": {
            "lon": 35.328892,
            "lat": 37.001671
        }
    },
    {
        "id": 298333,
        "name": "Sanliurfa",
        "country": "TR",
        "coord": {
            "lon": 38.793919,
            "lat": 37.16708
        }
    },
    {
        "id": 747458,
        "name": "Erenler",
        "country": "TR",
        "coord": {
            "lon": 29.566669,
            "lat": 41.116669
        }
    },
    {
        "id": 311044,
        "name": "\u0130zmir",
        "country": "TR",
        "coord": {
            "lon": 27.092291,
            "lat": 38.462189
        }
    },
    {
        "id": 311046,
        "name": "Izmir",
        "country": "TR",
        "coord": {
            "lon": 27.13838,
            "lat": 38.412731
        }
    },
    {
        "id": 745977,
        "name": "Halkal\u0131",
        "country": "TR",
        "coord": {
            "lon": 28.78944,
            "lat": 41.036671
        }
    },
    {
        "id": 304922,
        "name": "Malatya",
        "country": "TR",
        "coord": {
            "lon": 38.316669,
            "lat": 38.350182
        }
    },
    {
        "id": 747014,
        "name": "Gebze",
        "country": "TR",
        "coord": {
            "lon": 29.430679,
            "lat": 40.802761
        }
    },
    {
        "id": 737022,
        "name": "Zonguldak",
        "country": "TR",
        "coord": {
            "lon": 31.793051,
            "lat": 41.451389
        }
    },
    {
        "id": 737611,
        "name": "Yenisehir",
        "country": "TR",
        "coord": {
            "lon": 29.653061,
            "lat": 40.264439
        }
    },
    {
        "id": 741045,
        "name": "Orhangazi",
        "country": "TR",
        "coord": {
            "lon": 29.308889,
            "lat": 40.48917
        }
    },
    {
        "id": 388292,
        "name": "Barbaros",
        "country": "TR",
        "coord": {
            "lon": 36.164951,
            "lat": 36.580009
        }
    },
    {
        "id": 748893,
        "name": "Corlu",
        "country": "TR",
        "coord": {
            "lon": 27.799999,
            "lat": 41.159168
        }
    },
    {
        "id": 300619,
        "name": "Sivas",
        "country": "TR",
        "coord": {
            "lon": 37.016109,
            "lat": 39.748329
        }
    },
    {
        "id": 749274,
        "name": "Cerkezkoy",
        "country": "TR",
        "coord": {
            "lon": 28.00028,
            "lat": 41.285
        }
    },
    {
        "id": 7732576,
        "name": "Okmeydan\u0131",
        "country": "TR",
        "coord": {
            "lon": 28.9639,
            "lat": 41.054489
        }
    },
    {
        "id": 862469,
        "name": "Yalova",
        "country": "TR",
        "coord": {
            "lon": 29.16667,
            "lat": 40.583328
        }
    },
    {
        "id": 744926,
        "name": "Kadikoy",
        "country": "TR",
        "coord": {
            "lon": 29.225361,
            "lat": 40.620152
        }
    },
    {
        "id": 746666,
        "name": "Geulzuk",
        "country": "TR",
        "coord": {
            "lon": 29.828609,
            "lat": 40.716671
        }
    },
    {
        "id": 746574,
        "name": "Gonen",
        "country": "TR",
        "coord": {
            "lon": 27.65399,
            "lat": 40.1049
        }
    },
    {
        "id": 315373,
        "name": "Erzincan",
        "country": "TR",
        "coord": {
            "lon": 39.492779,
            "lat": 39.75222
        }
    },
    {
        "id": 743439,
        "name": "Kesan",
        "country": "TR",
        "coord": {
            "lon": 26.63028,
            "lat": 40.855831
        }
    },
    {
        "id": 750605,
        "name": "Biga",
        "country": "TR",
        "coord": {
            "lon": 27.24222,
            "lat": 40.228062
        }
    },
    {
        "id": 862468,
        "name": "Karab\u00fck",
        "country": "TR",
        "coord": {
            "lon": 32.5,
            "lat": 41.25
        }
    },
    {
        "id": 315498,
        "name": "Eregli",
        "country": "TR",
        "coord": {
            "lon": 34.046719,
            "lat": 37.513329
        }
    },
    {
        "id": 743165,
        "name": "K\u0131rklareli",
        "country": "TR",
        "coord": {
            "lon": 27.5,
            "lat": 41.666672
        }
    },
    {
        "id": 743932,
        "name": "Kartal",
        "country": "TR",
        "coord": {
            "lon": 29.18861,
            "lat": 40.904949
        }
    },
    {
        "id": 751371,
        "name": "Babaeski",
        "country": "TR",
        "coord": {
            "lon": 27.09306,
            "lat": 41.432499
        }
    },
    {
        "id": 299817,
        "name": "Tarsus",
        "country": "TR",
        "coord": {
            "lon": 34.878399,
            "lat": 36.918758
        }
    },
    {
        "id": 740483,
        "name": "Rize",
        "country": "TR",
        "coord": {
            "lon": 40.521938,
            "lat": 41.020828
        }
    },
    {
        "id": 738025,
        "name": "Yalova",
        "country": "TR",
        "coord": {
            "lon": 29.27693,
            "lat": 40.655022
        }
    },
    {
        "id": 320533,
        "name": "Bucak",
        "country": "TR",
        "coord": {
            "lon": 30.594999,
            "lat": 37.459171
        }
    },
    {
        "id": 746958,
        "name": "Gemlik",
        "country": "TR",
        "coord": {
            "lon": 29.159691,
            "lat": 40.430939
        }
    },
    {
        "id": 751335,
        "name": "Bafra",
        "country": "TR",
        "coord": {
            "lon": 35.90694,
            "lat": 41.56778
        }
    },
    {
        "id": 862470,
        "name": "Ardahan",
        "country": "TR",
        "coord": {
            "lon": 42.833328,
            "lat": 41.083328
        }
    },
    {
        "id": 305681,
        "name": "Kumluca",
        "country": "TR",
        "coord": {
            "lon": 30.28694,
            "lat": 36.370281
        }
    },
    {
        "id": 298806,
        "name": "Turgutlu",
        "country": "TR",
        "coord": {
            "lon": 27.699699,
            "lat": 38.495331
        }
    },
    {
        "id": 749262,
        "name": "S\u00fcleymanlar Mahallesi",
        "country": "TR",
        "coord": {
            "lon": 31.41044,
            "lat": 41.290192
        }
    },
    {
        "id": 296852,
        "name": "Erzin",
        "country": "TR",
        "coord": {
            "lon": 36.200001,
            "lat": 36.955891
        }
    },
    {
        "id": 296895,
        "name": "Yerkoy",
        "country": "TR",
        "coord": {
            "lon": 34.46722,
            "lat": 39.638062
        }
    },
    {
        "id": 297564,
        "name": "Yatagan",
        "country": "TR",
        "coord": {
            "lon": 28.14279,
            "lat": 37.34026
        }
    },
    {
        "id": 298230,
        "name": "Cimin",
        "country": "TR",
        "coord": {
            "lon": 39.702129,
            "lat": 39.71011
        }
    },
    {
        "id": 298326,
        "name": "Urgub",
        "country": "TR",
        "coord": {
            "lon": 34.91198,
            "lat": 38.629601
        }
    },
    {
        "id": 300058,
        "name": "Susurluk",
        "country": "TR",
        "coord": {
            "lon": 28.15778,
            "lat": 39.913609
        }
    },
    {
        "id": 300377,
        "name": "Solhan",
        "country": "TR",
        "coord": {
            "lon": 41.029308,
            "lat": 38.963379
        }
    },
    {
        "id": 300791,
        "name": "Simav",
        "country": "TR",
        "coord": {
            "lon": 28.977671,
            "lat": 39.0882
        }
    },
    {
        "id": 301827,
        "name": "Saraykoy",
        "country": "TR",
        "coord": {
            "lon": 28.925159,
            "lat": 37.92448
        }
    },
    {
        "id": 303700,
        "name": "Hypaepa",
        "country": "TR",
        "coord": {
            "lon": 27.969549,
            "lat": 38.227798
        }
    },
    {
        "id": 304013,
        "name": "Mut",
        "country": "TR",
        "coord": {
            "lon": 33.43885,
            "lat": 36.64389
        }
    },
    {
        "id": 305742,
        "name": "Kulu",
        "country": "TR",
        "coord": {
            "lon": 33.079891,
            "lat": 39.095139
        }
    },
    {
        "id": 305750,
        "name": "Kulp",
        "country": "TR",
        "coord": {
            "lon": 41.012218,
            "lat": 38.497219
        }
    },
    {
        "id": 307211,
        "name": "Serinhisar",
        "country": "TR",
        "coord": {
            "lon": 29.26639,
            "lat": 37.581039
        }
    },
    {
        "id": 309415,
        "name": "Karapinar",
        "country": "TR",
        "coord": {
            "lon": 33.55064,
            "lat": 37.715961
        }
    },
    {
        "id": 311453,
        "name": "Imamoglu",
        "country": "TR",
        "coord": {
            "lon": 35.657169,
            "lat": 37.26506
        }
    },
    {
        "id": 312024,
        "name": "Hizan",
        "country": "TR",
        "coord": {
            "lon": 42.427761,
            "lat": 38.225719
        }
    },
    {
        "id": 312114,
        "name": "Hinis",
        "country": "TR",
        "coord": {
            "lon": 41.702221,
            "lat": 39.3606
        }
    },
    {
        "id": 312134,
        "name": "Hilvan",
        "country": "TR",
        "coord": {
            "lon": 38.955051,
            "lat": 37.586861
        }
    },
    {
        "id": 324768,
        "name": "Akdagmadeni",
        "country": "TR",
        "coord": {
            "lon": 35.88361,
            "lat": 39.660278
        }
    },
    {
        "id": 743404,
        "name": "Kestel",
        "country": "TR",
        "coord": {
            "lon": 29.21237,
            "lat": 40.19828
        }
    },
    {
        "id": 746252,
        "name": "Gurgentepe",
        "country": "TR",
        "coord": {
            "lon": 37.601669,
            "lat": 40.78833
        }
    },
    {
        "id": 748167,
        "name": "Devrek",
        "country": "TR",
        "coord": {
            "lon": 31.95583,
            "lat": 41.21917
        }
    },
    {
        "id": 7642392,
        "name": "G\u00fclekildam",
        "country": "TR",
        "coord": {
            "lon": 35.241241,
            "lat": 36.97467
        }
    },
    {
        "id": 315695,
        "name": "Bulancak",
        "country": "TR",
        "coord": {
            "lon": 38.53574,
            "lat": 37.290852
        }
    },
    {
        "id": 310434,
        "name": "Kap\u0131k\u0131r\u0131",
        "country": "TR",
        "coord": {
            "lon": 27.52667,
            "lat": 37.503891
        }
    },
    {
        "id": 319041,
        "name": "\u00c7ay\u0131r\u00f6z\u00fc",
        "country": "TR",
        "coord": {
            "lon": 35.2906,
            "lat": 38.422359
        }
    },
    {
        "id": 443185,
        "name": "Aksaray",
        "country": "TR",
        "coord": {
            "lon": 33.833328,
            "lat": 38.5
        }
    },
    {
        "id": 308635,
        "name": "Kayadibi",
        "country": "TR",
        "coord": {
            "lon": 27.522221,
            "lat": 38.54472
        }
    },
    {
        "id": 306954,
        "name": "Ko\u00e7ak",
        "country": "TR",
        "coord": {
            "lon": 30.014441,
            "lat": 39.286942
        }
    },
    {
        "id": 325302,
        "name": "Afyonkarahisar",
        "country": "TR",
        "coord": {
            "lon": 30.66667,
            "lat": 38.75
        }
    },
    {
        "id": 315985,
        "name": "Edremit",
        "country": "TR",
        "coord": {
            "lon": 27.024441,
            "lat": 39.596111
        }
    },
    {
        "id": 746527,
        "name": "Akkaya",
        "country": "TR",
        "coord": {
            "lon": 33.471169,
            "lat": 41.228161
        }
    },
    {
        "id": 306571,
        "name": "Konya",
        "country": "TR",
        "coord": {
            "lon": 32.484638,
            "lat": 37.871349
        }
    },
    {
        "id": 311073,
        "name": "Isparta",
        "country": "TR",
        "coord": {
            "lon": 30.552219,
            "lat": 37.764439
        }
    },
    {
        "id": 317109,
        "name": "Denizli",
        "country": "TR",
        "coord": {
            "lon": 29.0875,
            "lat": 37.77417
        }
    },
    {
        "id": 750516,
        "name": "Bolu",
        "country": "TR",
        "coord": {
            "lon": 31.60611,
            "lat": 40.735828
        }
    },
    {
        "id": 747711,
        "name": "Edirne",
        "country": "TR",
        "coord": {
            "lon": 26.66667,
            "lat": 41.25
        }
    },
    {
        "id": 749780,
        "name": "Canakkale",
        "country": "TR",
        "coord": {
            "lon": 26.406389,
            "lat": 40.145561
        }
    },
    {
        "id": 738648,
        "name": "Trabzon",
        "country": "TR",
        "coord": {
            "lon": 39.72694,
            "lat": 41.005001
        }
    },
    {
        "id": 307654,
        "name": "Kirikkale",
        "country": "TR",
        "coord": {
            "lon": 33.50639,
            "lat": 39.84528
        }
    },
    {
        "id": 315368,
        "name": "Erzurum",
        "country": "TR",
        "coord": {
            "lon": 41.276939,
            "lat": 39.908611
        }
    },
    {
        "id": 323779,
        "name": "Antioch",
        "country": "TR",
        "coord": {
            "lon": 36.157219,
            "lat": 36.206551
        }
    },
    {
        "id": 8074164,
        "name": "Y\u00fckseli\u015f",
        "country": "TR",
        "coord": {
            "lon": 30.692301,
            "lat": 36.91283
        }
    },
    {
        "id": 310859,
        "name": "Kahramanmaras",
        "country": "TR",
        "coord": {
            "lon": 36.926399,
            "lat": 37.584702
        }
    },
    {
        "id": 738390,
        "name": "Ulus",
        "country": "TR",
        "coord": {
            "lon": 32.641392,
            "lat": 41.584171
        }
    },
    {
        "id": 744876,
        "name": "K\u00e2\u011f\u0131thane",
        "country": "TR",
        "coord": {
            "lon": 28.96472,
            "lat": 41.079441
        }
    },
    {
        "id": 321836,
        "name": "Batman",
        "country": "TR",
        "coord": {
            "lon": 41.13221,
            "lat": 37.887379
        }
    },
    {
        "id": 752015,
        "name": "Amasya",
        "country": "TR",
        "coord": {
            "lon": 35.833061,
            "lat": 40.653332
        }
    },
    {
        "id": 443213,
        "name": "Kilis",
        "country": "TR",
        "coord": {
            "lon": 37.139999,
            "lat": 36.73
        }
    },
    {
        "id": 741100,
        "name": "Ordu",
        "country": "TR",
        "coord": {
            "lon": 37.878891,
            "lat": 40.984718
        }
    },
    {
        "id": 441841,
        "name": "Aynysich",
        "country": "TR",
        "coord": {
            "lon": 40.728611,
            "lat": 37.318329
        }
    },
    {
        "id": 309527,
        "name": "Karaman",
        "country": "TR",
        "coord": {
            "lon": 33.215,
            "lat": 37.18111
        }
    },
    {
        "id": 751817,
        "name": "Artvin",
        "country": "TR",
        "coord": {
            "lon": 41.819439,
            "lat": 41.18222
        }
    },
    {
        "id": 298299,
        "name": "Usak",
        "country": "TR",
        "coord": {
            "lon": 29.4058,
            "lat": 38.673512
        }
    },
    {
        "id": 300399,
        "name": "Soeke",
        "country": "TR",
        "coord": {
            "lon": 27.406139,
            "lat": 37.748199
        }
    },
    {
        "id": 321082,
        "name": "Bingol",
        "country": "TR",
        "coord": {
            "lon": 40.493889,
            "lat": 38.88472
        }
    },
    {
        "id": 296562,
        "name": "Yozgat",
        "country": "TR",
        "coord": {
            "lon": 34.80444,
            "lat": 39.82
        }
    },
    {
        "id": 748879,
        "name": "Corum",
        "country": "TR",
        "coord": {
            "lon": 34.953331,
            "lat": 40.548889
        }
    },
    {
        "id": 740430,
        "name": "Safranbolu",
        "country": "TR",
        "coord": {
            "lon": 32.694172,
            "lat": 41.250832
        }
    },
    {
        "id": 318137,
        "name": "Hakkari",
        "country": "TR",
        "coord": {
            "lon": 43.740829,
            "lat": 37.57444
        }
    },
    {
        "id": 749748,
        "name": "Khanjarah",
        "country": "TR",
        "coord": {
            "lon": 33.615299,
            "lat": 40.599949
        }
    },
    {
        "id": 746565,
        "name": "Gorele",
        "country": "TR",
        "coord": {
            "lon": 39.003059,
            "lat": 41.03083
        }
    },
    {
        "id": 307515,
        "name": "Kirsehir",
        "country": "TR",
        "coord": {
            "lon": 34.163891,
            "lat": 39.145828
        }
    },
    {
        "id": 321025,
        "name": "Bitlis",
        "country": "TR",
        "coord": {
            "lon": 42.107841,
            "lat": 38.40115
        }
    },
    {
        "id": 739600,
        "name": "Sinop",
        "country": "TR",
        "coord": {
            "lon": 35.162521,
            "lat": 42.026829
        }
    },
    {
        "id": 317497,
        "name": "Dazikom",
        "country": "TR",
        "coord": {
            "lon": 41.489601,
            "lat": 38.744041
        }
    },
    {
        "id": 296832,
        "name": "Yesilli",
        "country": "TR",
        "coord": {
            "lon": 40.825581,
            "lat": 37.3405
        }
    },
    {
        "id": 304916,
        "name": "Malazgirt",
        "country": "TR",
        "coord": {
            "lon": 42.540081,
            "lat": 39.142651
        }
    },
    {
        "id": 305680,
        "name": "Beykonak",
        "country": "TR",
        "coord": {
            "lon": 30.30302,
            "lat": 36.325729
        }
    },
    {
        "id": 306041,
        "name": "Kozluk",
        "country": "TR",
        "coord": {
            "lon": 41.488529,
            "lat": 38.193829
        }
    },
    {
        "id": 311553,
        "name": "Ilgin",
        "country": "TR",
        "coord": {
            "lon": 31.913891,
            "lat": 38.279171
        }
    },
    {
        "id": 436927,
        "name": "D\u00f6rtyol \u0130l\u00e7esi",
        "country": "TR",
        "coord": {
            "lon": 36.285831,
            "lat": 36.840832
        }
    },
    {
        "id": 323786,
        "name": "Ankara",
        "country": "TR",
        "coord": {
            "lon": 32.854271,
            "lat": 39.919868
        }
    },
    {
        "id": 745664,
        "name": "Hendek",
        "country": "TR",
        "coord": {
            "lon": 30.74806,
            "lat": 40.799438
        }
    },
    {
        "id": 749279,
        "name": "Cerkes",
        "country": "TR",
        "coord": {
            "lon": 32.893581,
            "lat": 40.811642
        }
    },
    {
        "id": 298795,
        "name": "Republic of Turkey",
        "country": "TR",
        "coord": {
            "lon": 34.911549,
            "lat": 39.05901
        }
    },
    {
        "id": 312394,
        "name": "Hatay",
        "country": "TR",
        "coord": {
            "lon": 36.25,
            "lat": 36.5
        }
    },
    {
        "id": 438057,
        "name": "Alvan",
        "country": "TR",
        "coord": {
            "lon": 36.172459,
            "lat": 36.220901
        }
    },
    {
        "id": 324140,
        "name": "Al\u00e2z\u0131",
        "country": "TR",
        "coord": {
            "lon": 36.116669,
            "lat": 36.349998
        }
    },
    {
        "id": 325361,
        "name": "Adana",
        "country": "TR",
        "coord": {
            "lon": 35.28809,
            "lat": 36.985001
        }
    },
    {
        "id": 298332,
        "name": "\u015eanl\u0131urfa",
        "country": "TR",
        "coord": {
            "lon": 38.781738,
            "lat": 37.21283
        }
    },
    {
        "id": 443183,
        "name": "Osmaniye",
        "country": "TR",
        "coord": {
            "lon": 36.24596,
            "lat": 37.235249
        }
    },
    {
        "id": 297098,
        "name": "Yenifarsak",
        "country": "TR",
        "coord": {
            "lon": 36.583328,
            "lat": 37.316669
        }
    },
    {
        "id": 320390,
        "name": "Burdur",
        "country": "TR",
        "coord": {
            "lon": 30,
            "lat": 37.5
        }
    },
    {
        "id": 310479,
        "name": "Kapakl\u0131",
        "country": "TR",
        "coord": {
            "lon": 30.29056,
            "lat": 37.46389
        }
    },
    {
        "id": 304183,
        "name": "Mu\u011fla",
        "country": "TR",
        "coord": {
            "lon": 28.355709,
            "lat": 37.230331
        }
    },
    {
        "id": 308463,
        "name": "Kayseri",
        "country": "TR",
        "coord": {
            "lon": 35.49683,
            "lat": 38.73695
        }
    },
    {
        "id": 324594,
        "name": "Akmezar",
        "country": "TR",
        "coord": {
            "lon": 34.310989,
            "lat": 38.462059
        }
    },
    {
        "id": 305267,
        "name": "K\u00fctahya",
        "country": "TR",
        "coord": {
            "lon": 29.5,
            "lat": 39.25
        }
    },
    {
        "id": 325163,
        "name": "A\u011fr\u0131",
        "country": "TR",
        "coord": {
            "lon": 43.166672,
            "lat": 39.666672
        }
    },
    {
        "id": 321590,
        "name": "Belce",
        "country": "TR",
        "coord": {
            "lon": 30.34444,
            "lat": 39.490002
        }
    },
    {
        "id": 323784,
        "name": "Ankara",
        "country": "TR",
        "coord": {
            "lon": 32.833328,
            "lat": 39.916672
        }
    },
    {
        "id": 316085,
        "name": "Durutlar",
        "country": "TR",
        "coord": {
            "lon": 32.447269,
            "lat": 39.538361
        }
    },
    {
        "id": 322164,
        "name": "Bal\u0131kesir",
        "country": "TR",
        "coord": {
            "lon": 28,
            "lat": 39.75
        }
    },
    {
        "id": 321122,
        "name": "Bilecik",
        "country": "TR",
        "coord": {
            "lon": 30.16667,
            "lat": 40
        }
    },
    {
        "id": 743942,
        "name": "Kars",
        "country": "TR",
        "coord": {
            "lon": 43.083328,
            "lat": 40.416672
        }
    },
    {
        "id": 742580,
        "name": "K\u00f6seler",
        "country": "TR",
        "coord": {
            "lon": 43.509102,
            "lat": 40.456219
        }
    },
    {
        "id": 740263,
        "name": "Samsun",
        "country": "TR",
        "coord": {
            "lon": 36.333328,
            "lat": 41.25
        }
    },
    {
        "id": 743881,
        "name": "Kastamonu",
        "country": "TR",
        "coord": {
            "lon": 33.666672,
            "lat": 41.5
        }
    },
    {
        "id": 303195,
        "name": "Osmaniye",
        "country": "TR",
        "coord": {
            "lon": 36.24778,
            "lat": 37.074169
        }
    },
    {
        "id": 320392,
        "name": "Burdur",
        "country": "TR",
        "coord": {
            "lon": 30.290831,
            "lat": 37.72028
        }
    },
    {
        "id": 320995,
        "name": "Bodrum",
        "country": "TR",
        "coord": {
            "lon": 27.429171,
            "lat": 37.03833
        }
    },
    {
        "id": 308464,
        "name": "Kayseri",
        "country": "TR",
        "coord": {
            "lon": 35.485279,
            "lat": 38.73222
        }
    },
    {
        "id": 303290,
        "name": "Ortakoy",
        "country": "TR",
        "coord": {
            "lon": 34.038658,
            "lat": 38.737282
        }
    },
    {
        "id": 304827,
        "name": "Manisa",
        "country": "TR",
        "coord": {
            "lon": 27.42646,
            "lat": 38.612019
        }
    },
    {
        "id": 305268,
        "name": "Kutahya",
        "country": "TR",
        "coord": {
            "lon": 29.98333,
            "lat": 39.424171
        }
    },
    {
        "id": 325303,
        "name": "Afyonkarahisar",
        "country": "TR",
        "coord": {
            "lon": 30.543329,
            "lat": 38.756672
        }
    },
    {
        "id": 309647,
        "name": "Agri",
        "country": "TR",
        "coord": {
            "lon": 43.051392,
            "lat": 39.71944
        }
    },
    {
        "id": 7927370,
        "name": "Kolej",
        "country": "TR",
        "coord": {
            "lon": 32.863369,
            "lat": 39.923882
        }
    },
    {
        "id": 322165,
        "name": "Balikesir",
        "country": "TR",
        "coord": {
            "lon": 27.88611,
            "lat": 39.64917
        }
    },
    {
        "id": 750598,
        "name": "Bilecik",
        "country": "TR",
        "coord": {
            "lon": 29.979321,
            "lat": 40.141918
        }
    },
    {
        "id": 743952,
        "name": "Kars",
        "country": "TR",
        "coord": {
            "lon": 43.094952,
            "lat": 40.60199
        }
    },
    {
        "id": 740264,
        "name": "Samsun",
        "country": "TR",
        "coord": {
            "lon": 36.330002,
            "lat": 41.286671
        }
    },
    {
        "id": 743882,
        "name": "Kastamonu",
        "country": "TR",
        "coord": {
            "lon": 33.77528,
            "lat": 41.378052
        }
    },
    {
        "id": 745044,
        "name": "Istanbul",
        "country": "TR",
        "coord": {
            "lon": 28.949659,
            "lat": 41.01384
        }
    },
    {
        "id": 738354,
        "name": "Unkapan\u0131",
        "country": "TR",
        "coord": {
            "lon": 28.966669,
            "lat": 41.01667
        }
    },
    {
        "id": 315201,
        "name": "Eski\u015fehir",
        "country": "TR",
        "coord": {
            "lon": 31.16667,
            "lat": 39.666672
        }
    },
    {
        "id": 315202,
        "name": "Eskisehir",
        "country": "TR",
        "coord": {
            "lon": 30.520559,
            "lat": 39.776669
        }
    },
    {
        "id": 738926,
        "name": "Tekirda\u011f",
        "country": "TR",
        "coord": {
            "lon": 27.5,
            "lat": 41
        }
    },
    {
        "id": 738927,
        "name": "Tekirdag",
        "country": "TR",
        "coord": {
            "lon": 27.50852,
            "lat": 40.978008
        }
    },
    {
        "id": 306569,
        "name": "Konya",
        "country": "TR",
        "coord": {
            "lon": 32.5,
            "lat": 38.166672
        }
    },
    {
        "id": 311071,
        "name": "Isparta",
        "country": "TR",
        "coord": {
            "lon": 31,
            "lat": 38
        }
    },
    {
        "id": 314829,
        "name": "Gaziantep",
        "country": "TR",
        "coord": {
            "lon": 37.333328,
            "lat": 37.083328
        }
    },
    {
        "id": 314830,
        "name": "Gaziantep",
        "country": "TR",
        "coord": {
            "lon": 37.3825,
            "lat": 37.059441
        }
    },
    {
        "id": 740352,
        "name": "Sakarya",
        "country": "TR",
        "coord": {
            "lon": 30.58333,
            "lat": 40.75
        }
    },
    {
        "id": 752850,
        "name": "Adapazari",
        "country": "TR",
        "coord": {
            "lon": 30.40333,
            "lat": 40.78056
        }
    },
    {
        "id": 741763,
        "name": "Maltepe",
        "country": "TR",
        "coord": {
            "lon": 29.155069,
            "lat": 40.935669
        }
    },
    {
        "id": 317106,
        "name": "Denizli",
        "country": "TR",
        "coord": {
            "lon": 29.06982,
            "lat": 37.84016
        }
    },
    {
        "id": 750268,
        "name": "Bursa",
        "country": "TR",
        "coord": {
            "lon": 29.08333,
            "lat": 40.166672
        }
    },
    {
        "id": 750269,
        "name": "Bursa",
        "country": "TR",
        "coord": {
            "lon": 29.06111,
            "lat": 40.191669
        }
    },
    {
        "id": 304919,
        "name": "Malatya",
        "country": "TR",
        "coord": {
            "lon": 38,
            "lat": 38.5
        }
    },
    {
        "id": 738742,
        "name": "Tokat",
        "country": "TR",
        "coord": {
            "lon": 36.583328,
            "lat": 40.416672
        }
    },
    {
        "id": 738743,
        "name": "Tokat",
        "country": "TR",
        "coord": {
            "lon": 36.55444,
            "lat": 40.313889
        }
    },
    {
        "id": 742865,
        "name": "Kocaeli",
        "country": "TR",
        "coord": {
            "lon": 29.91667,
            "lat": 40.916672
        }
    },
    {
        "id": 750510,
        "name": "Bolu",
        "country": "TR",
        "coord": {
            "lon": 31.58333,
            "lat": 40.666672
        }
    },
    {
        "id": 747712,
        "name": "Edirne",
        "country": "TR",
        "coord": {
            "lon": 26.555969,
            "lat": 41.677189
        }
    },
    {
        "id": 749778,
        "name": "\u00c7anakkale",
        "country": "TR",
        "coord": {
            "lon": 26.83333,
            "lat": 40.083328
        }
    },
    {
        "id": 304184,
        "name": "Mugla",
        "country": "TR",
        "coord": {
            "lon": 28.366501,
            "lat": 37.218071
        }
    },
    {
        "id": 738647,
        "name": "Trabzon",
        "country": "TR",
        "coord": {
            "lon": 39.833328,
            "lat": 40.916672
        }
    },
    {
        "id": 443188,
        "name": "K\u0131r\u0131kkale",
        "country": "TR",
        "coord": {
            "lon": 33.75,
            "lat": 39.833328
        }
    },
    {
        "id": 315367,
        "name": "Erzurum",
        "country": "TR",
        "coord": {
            "lon": 41.5,
            "lat": 40
        }
    },
    {
        "id": 737021,
        "name": "Zonguldak",
        "country": "TR",
        "coord": {
            "lon": 31.83333,
            "lat": 41.25
        }
    },
    {
        "id": 323776,
        "name": "Antalya",
        "country": "TR",
        "coord": {
            "lon": 30.71777,
            "lat": 36.77409
        }
    },
    {
        "id": 310858,
        "name": "Kahramanmara\u015f",
        "country": "TR",
        "coord": {
            "lon": 37,
            "lat": 38
        }
    },
    {
        "id": 862467,
        "name": "Bart\u0131n",
        "country": "TR",
        "coord": {
            "lon": 32.5,
            "lat": 41.583328
        }
    },
    {
        "id": 300617,
        "name": "Sivas",
        "country": "TR",
        "coord": {
            "lon": 37.001949,
            "lat": 39.791649
        }
    },
    {
        "id": 315807,
        "name": "Elaz\u0131\u011f",
        "country": "TR",
        "coord": {
            "lon": 39.17725,
            "lat": 38.73695
        }
    },
    {
        "id": 315808,
        "name": "Elazig",
        "country": "TR",
        "coord": {
            "lon": 39.223209,
            "lat": 38.674309
        }
    },
    {
        "id": 443186,
        "name": "Batman",
        "country": "TR",
        "coord": {
            "lon": 41.333328,
            "lat": 38
        }
    },
    {
        "id": 738329,
        "name": "\u00dcsk\u00fcdar",
        "country": "TR",
        "coord": {
            "lon": 29.023689,
            "lat": 41.022518
        }
    },
    {
        "id": 324496,
        "name": "Aksaray",
        "country": "TR",
        "coord": {
            "lon": 34.025372,
            "lat": 38.372551
        }
    },
    {
        "id": 318755,
        "name": "Cesme",
        "country": "TR",
        "coord": {
            "lon": 26.306391,
            "lat": 38.322781
        }
    },
    {
        "id": 314967,
        "name": "Fethiye",
        "country": "TR",
        "coord": {
            "lon": 29.11639,
            "lat": 36.62167
        }
    },
    {
        "id": 739634,
        "name": "Silivri",
        "country": "TR",
        "coord": {
            "lon": 28.226049,
            "lat": 41.080219
        }
    },
    {
        "id": 752014,
        "name": "Amasya",
        "country": "TR",
        "coord": {
            "lon": 35.833328,
            "lat": 40.666672
        }
    },
    {
        "id": 315372,
        "name": "Erzincan",
        "country": "TR",
        "coord": {
            "lon": 39.5,
            "lat": 39.75
        }
    },
    {
        "id": 307864,
        "name": "Kilis",
        "country": "TR",
        "coord": {
            "lon": 37.115002,
            "lat": 36.71611
        }
    },
    {
        "id": 741098,
        "name": "Ordu",
        "country": "TR",
        "coord": {
            "lon": 37.684479,
            "lat": 40.908581
        }
    },
    {
        "id": 316540,
        "name": "Diyarbak\u0131r",
        "country": "TR",
        "coord": {
            "lon": 40.23193,
            "lat": 37.961521
        }
    },
    {
        "id": 316541,
        "name": "Diyarbakir",
        "country": "TR",
        "coord": {
            "lon": 40.218891,
            "lat": 37.915829
        }
    },
    {
        "id": 304794,
        "name": "Mardin",
        "country": "TR",
        "coord": {
            "lon": 40.715328,
            "lat": 37.317749
        }
    },
    {
        "id": 443187,
        "name": "Karaman",
        "country": "TR",
        "coord": {
            "lon": 33.25,
            "lat": 37.083328
        }
    },
    {
        "id": 744562,
        "name": "Karabuk",
        "country": "TR",
        "coord": {
            "lon": 32.627682,
            "lat": 41.20488
        }
    },
    {
        "id": 751816,
        "name": "Artvin",
        "country": "TR",
        "coord": {
            "lon": 41.833328,
            "lat": 41.166672
        }
    },
    {
        "id": 317851,
        "name": "Cumaovasi",
        "country": "TR",
        "coord": {
            "lon": 27.134291,
            "lat": 38.24963
        }
    },
    {
        "id": 298298,
        "name": "U\u015fak",
        "country": "TR",
        "coord": {
            "lon": 29.41667,
            "lat": 38.5
        }
    },
    {
        "id": 322819,
        "name": "Ayd\u0131n",
        "country": "TR",
        "coord": {
            "lon": 28,
            "lat": 37.75
        }
    },
    {
        "id": 743166,
        "name": "Kirklareli",
        "country": "TR",
        "coord": {
            "lon": 27.22521,
            "lat": 41.735081
        }
    },
    {
        "id": 865521,
        "name": "D\u00fczce",
        "country": "TR",
        "coord": {
            "lon": 31.16667,
            "lat": 40.833328
        }
    },
    {
        "id": 747764,
        "name": "Duzce",
        "country": "TR",
        "coord": {
            "lon": 31.163891,
            "lat": 40.83889
        }
    },
    {
        "id": 321079,
        "name": "Bing\u00f6l",
        "country": "TR",
        "coord": {
            "lon": 40.833328,
            "lat": 39.083328
        }
    },
    {
        "id": 303873,
        "name": "Nazilli",
        "country": "TR",
        "coord": {
            "lon": 28.32225,
            "lat": 37.916309
        }
    },
    {
        "id": 750662,
        "name": "Beykoz",
        "country": "TR",
        "coord": {
            "lon": 29.090561,
            "lat": 41.14389
        }
    },
    {
        "id": 311728,
        "name": "\u0130\u00e7el",
        "country": "TR",
        "coord": {
            "lon": 34.650879,
            "lat": 36.862041
        }
    },
    {
        "id": 741855,
        "name": "Luleburgaz",
        "country": "TR",
        "coord": {
            "lon": 27.35918,
            "lat": 41.403851
        }
    },
    {
        "id": 321426,
        "name": "Bergama",
        "country": "TR",
        "coord": {
            "lon": 27.180519,
            "lat": 39.120739
        }
    },
    {
        "id": 296560,
        "name": "Yozgat",
        "country": "TR",
        "coord": {
            "lon": 35.333328,
            "lat": 39.583328
        }
    },
    {
        "id": 748877,
        "name": "\u00c7orum",
        "country": "TR",
        "coord": {
            "lon": 34.75,
            "lat": 40.5
        }
    },
    {
        "id": 740481,
        "name": "Rize",
        "country": "TR",
        "coord": {
            "lon": 40.89489,
            "lat": 40.90443
        }
    },
    {
        "id": 312888,
        "name": "Hakkari",
        "country": "TR",
        "coord": {
            "lon": 44.166672,
            "lat": 37.583328
        }
    },
    {
        "id": 298845,
        "name": "Tunceli",
        "country": "TR",
        "coord": {
            "lon": 39.5,
            "lat": 39.083328
        }
    },
    {
        "id": 298846,
        "name": "Tunceli",
        "country": "TR",
        "coord": {
            "lon": 39.547112,
            "lat": 39.108292
        }
    },
    {
        "id": 749747,
        "name": "\u00c7ank\u0131r\u0131",
        "country": "TR",
        "coord": {
            "lon": 33.416672,
            "lat": 40.666672
        }
    },
    {
        "id": 738349,
        "name": "Unieh",
        "country": "TR",
        "coord": {
            "lon": 37.282501,
            "lat": 41.13139
        }
    },
    {
        "id": 738803,
        "name": "Terme",
        "country": "TR",
        "coord": {
            "lon": 36.973888,
            "lat": 41.209171
        }
    },
    {
        "id": 745697,
        "name": "Hayrabolu",
        "country": "TR",
        "coord": {
            "lon": 27.10688,
            "lat": 41.213112
        }
    },
    {
        "id": 747323,
        "name": "Esenyurt",
        "country": "TR",
        "coord": {
            "lon": 28.67528,
            "lat": 41.033329
        }
    },
    {
        "id": 741304,
        "name": "Niksar",
        "country": "TR",
        "coord": {
            "lon": 36.951672,
            "lat": 40.591671
        }
    },
    {
        "id": 303830,
        "name": "Nev\u015fehir",
        "country": "TR",
        "coord": {
            "lon": 34.666672,
            "lat": 38.916672
        }
    },
    {
        "id": 303831,
        "name": "Nevsehir",
        "country": "TR",
        "coord": {
            "lon": 34.712219,
            "lat": 38.625
        }
    },
    {
        "id": 310892,
        "name": "Kadirli",
        "country": "TR",
        "coord": {
            "lon": 36.096111,
            "lat": 37.37389
        }
    },
    {
        "id": 318675,
        "name": "Ceyhan",
        "country": "TR",
        "coord": {
            "lon": 35.817501,
            "lat": 37.024719
        }
    },
    {
        "id": 300821,
        "name": "Siirt",
        "country": "TR",
        "coord": {
            "lon": 41.945801,
            "lat": 37.961521
        }
    },
    {
        "id": 300822,
        "name": "Siirt",
        "country": "TR",
        "coord": {
            "lon": 41.94025,
            "lat": 37.932621
        }
    },
    {
        "id": 741160,
        "name": "Oltu",
        "country": "TR",
        "coord": {
            "lon": 42.001259,
            "lat": 40.549831
        }
    },
    {
        "id": 298113,
        "name": "Van",
        "country": "TR",
        "coord": {
            "lon": 43.5,
            "lat": 38.5
        }
    },
    {
        "id": 298117,
        "name": "Van",
        "country": "TR",
        "coord": {
            "lon": 43.38311,
            "lat": 38.49239
        }
    },
    {
        "id": 318766,
        "name": "Cermik",
        "country": "TR",
        "coord": {
            "lon": 39.449291,
            "lat": 38.136131
        }
    },
    {
        "id": 315468,
        "name": "Ergani",
        "country": "TR",
        "coord": {
            "lon": 39.762119,
            "lat": 38.265331
        }
    },
    {
        "id": 746878,
        "name": "Giresun",
        "country": "TR",
        "coord": {
            "lon": 38.5,
            "lat": 40.5
        }
    },
    {
        "id": 746423,
        "name": "G\u00fcm\u00fc\u015fhane",
        "country": "TR",
        "coord": {
            "lon": 39.583328,
            "lat": 40.25
        }
    },
    {
        "id": 746425,
        "name": "Gumushkhane",
        "country": "TR",
        "coord": {
            "lon": 39.481392,
            "lat": 40.460281
        }
    },
    {
        "id": 745169,
        "name": "Inegeul",
        "country": "TR",
        "coord": {
            "lon": 29.51333,
            "lat": 40.07806
        }
    },
    {
        "id": 307513,
        "name": "K\u0131r\u015fehir",
        "country": "TR",
        "coord": {
            "lon": 34.166672,
            "lat": 39.333328
        }
    },
    {
        "id": 751952,
        "name": "Ardahan",
        "country": "TR",
        "coord": {
            "lon": 42.702221,
            "lat": 41.108711
        }
    },
    {
        "id": 744168,
        "name": "Karamursel",
        "country": "TR",
        "coord": {
            "lon": 29.615681,
            "lat": 40.691441
        }
    },
    {
        "id": 311104,
        "name": "Islahiye",
        "country": "TR",
        "coord": {
            "lon": 36.630562,
            "lat": 37.025002
        }
    },
    {
        "id": 309683,
        "name": "Karakise",
        "country": "TR",
        "coord": {
            "lon": 36.216671,
            "lat": 36.849998
        }
    },
    {
        "id": 321062,
        "name": "Birecik",
        "country": "TR",
        "coord": {
            "lon": 37.99028,
            "lat": 37.029442
        }
    },
    {
        "id": 301871,
        "name": "Sara\u00e7",
        "country": "TR",
        "coord": {
            "lon": 28.073481,
            "lat": 39.675388
        }
    },
    {
        "id": 745026,
        "name": "Iznik",
        "country": "TR",
        "coord": {
            "lon": 29.721109,
            "lat": 40.428612
        }
    },
    {
        "id": 741771,
        "name": "Malkara",
        "country": "TR",
        "coord": {
            "lon": 26.90111,
            "lat": 40.889999
        }
    },
    {
        "id": 443189,
        "name": "\u015e\u0131rnak",
        "country": "TR",
        "coord": {
            "lon": 42.5,
            "lat": 37.5
        }
    },
    {
        "id": 300640,
        "name": "Sirnak",
        "country": "TR",
        "coord": {
            "lon": 42.459438,
            "lat": 37.522781
        }
    },
    {
        "id": 306042,
        "name": "Kozluk",
        "country": "TR",
        "coord": {
            "lon": 41.490002,
            "lat": 38.187222
        }
    },
    {
        "id": 321022,
        "name": "Bitlis",
        "country": "TR",
        "coord": {
            "lon": 42.25,
            "lat": 38.5
        }
    },
    {
        "id": 741609,
        "name": "Merzifon",
        "country": "TR",
        "coord": {
            "lon": 35.463058,
            "lat": 40.873329
        }
    },
    {
        "id": 325329,
        "name": "Ad\u0131yaman",
        "country": "TR",
        "coord": {
            "lon": 38.25,
            "lat": 37.75
        }
    },
    {
        "id": 310855,
        "name": "Kahta",
        "country": "TR",
        "coord": {
            "lon": 38.623699,
            "lat": 37.785519
        }
    },
    {
        "id": 739598,
        "name": "Sinop",
        "country": "TR",
        "coord": {
            "lon": 34.870949,
            "lat": 41.771061
        }
    },
    {
        "id": 304854,
        "name": "Manavgat",
        "country": "TR",
        "coord": {
            "lon": 31.44306,
            "lat": 36.786671
        }
    },
    {
        "id": 304041,
        "name": "Mu\u015f",
        "country": "TR",
        "coord": {
            "lon": 41.75,
            "lat": 39
        }
    },
    {
        "id": 741487,
        "name": "Mudanya",
        "country": "TR",
        "coord": {
            "lon": 28.882219,
            "lat": 40.375278
        }
    },
    {
        "id": 321768,
        "name": "Bay\u0131rba\u011f",
        "country": "TR",
        "coord": {
            "lon": 39.721809,
            "lat": 39.698051
        }
    },
    {
        "id": 310641,
        "name": "Kaman",
        "country": "TR",
        "coord": {
            "lon": 33.723888,
            "lat": 39.357498
        }
    },
    {
        "id": 324106,
        "name": "Aliaga",
        "country": "TR",
        "coord": {
            "lon": 26.972031,
            "lat": 38.799751
        }
    },
    {
        "id": 302043,
        "name": "Salihli",
        "country": "TR",
        "coord": {
            "lon": 28.147739,
            "lat": 38.482578
        }
    },
    {
        "id": 739236,
        "name": "Sungurlu",
        "country": "TR",
        "coord": {
            "lon": 34.37389,
            "lat": 40.1675
        }
    },
    {
        "id": 304382,
        "name": "Midyat",
        "country": "TR",
        "coord": {
            "lon": 41.33934,
            "lat": 37.424702
        }
    },
    {
        "id": 301101,
        "name": "Serik",
        "country": "TR",
        "coord": {
            "lon": 31.09889,
            "lat": 36.916939
        }
    },
    {
        "id": 305532,
        "name": "Kurtalan",
        "country": "TR",
        "coord": {
            "lon": 41.70282,
            "lat": 37.92717
        }
    },
    {
        "id": 747155,
        "name": "Fatsa",
        "country": "TR",
        "coord": {
            "lon": 37.501389,
            "lat": 41.027779
        }
    },
    {
        "id": 300614,
        "name": "Siverek",
        "country": "TR",
        "coord": {
            "lon": 39.316669,
            "lat": 37.75502
        }
    },
    {
        "id": 302724,
        "name": "Pertek",
        "country": "TR",
        "coord": {
            "lon": 39.326839,
            "lat": 38.866329
        }
    },
    {
        "id": 7624782,
        "name": "\u00c7evrik",
        "country": "TR",
        "coord": {
            "lon": 35.92205,
            "lat": 36.122211
        }
    },
    {
        "id": 309311,
        "name": "Karata\u015f",
        "country": "TR",
        "coord": {
            "lon": 35.382069,
            "lat": 36.563568
        }
    },
    {
        "id": 300273,
        "name": "Suhut",
        "country": "TR",
        "coord": {
            "lon": 30.54583,
            "lat": 38.531109
        }
    },
    {
        "id": 316795,
        "name": "Develi",
        "country": "TR",
        "coord": {
            "lon": 35.492222,
            "lat": 38.39056
        }
    },
    {
        "id": 300352,
        "name": "Sorgun",
        "country": "TR",
        "coord": {
            "lon": 35.185959,
            "lat": 39.81012
        }
    },
    {
        "id": 862471,
        "name": "Bayburt",
        "country": "TR",
        "coord": {
            "lon": 40.25,
            "lat": 40.25
        }
    },
    {
        "id": 750938,
        "name": "Bayburt",
        "country": "TR",
        "coord": {
            "lon": 40.227779,
            "lat": 40.258888
        }
    },
    {
        "id": 308133,
        "name": "Kepsut",
        "country": "TR",
        "coord": {
            "lon": 28.15222,
            "lat": 39.688889
        }
    },
    {
        "id": 741385,
        "name": "Mustafakemalpa\u015fa",
        "country": "TR",
        "coord": {
            "lon": 28.411671,
            "lat": 40.035278
        }
    },
    {
        "id": 305359,
        "name": "Kusadasi",
        "country": "TR",
        "coord": {
            "lon": 27.256599,
            "lat": 37.855621
        }
    },
    {
        "id": 314279,
        "name": "Ergama",
        "country": "TR",
        "coord": {
            "lon": 27.63867,
            "lat": 39.626629
        }
    },
    {
        "id": 305810,
        "name": "Kula",
        "country": "TR",
        "coord": {
            "lon": 28.649759,
            "lat": 38.54726
        }
    },
    {
        "id": 749795,
        "name": "Can",
        "country": "TR",
        "coord": {
            "lon": 27.052361,
            "lat": 40.033279
        }
    },
    {
        "id": 751077,
        "name": "Bandirma",
        "country": "TR",
        "coord": {
            "lon": 27.976669,
            "lat": 40.352219
        }
    },
    {
        "id": 321191,
        "name": "Beysehir",
        "country": "TR",
        "coord": {
            "lon": 31.724581,
            "lat": 37.677349
        }
    },
    {
        "id": 308224,
        "name": "Kemalpasa",
        "country": "TR",
        "coord": {
            "lon": 27.417311,
            "lat": 38.426208
        }
    },
    {
        "id": 298770,
        "name": "Turkoglu",
        "country": "TR",
        "coord": {
            "lon": 36.848331,
            "lat": 37.388439
        }
    },
    {
        "id": 317634,
        "name": "Danac\u0131l\u0131",
        "country": "TR",
        "coord": {
            "lon": 35.683331,
            "lat": 37.25
        }
    },
    {
        "id": 739043,
        "name": "Ta\u015fl\u0131k",
        "country": "TR",
        "coord": {
            "lon": 28.3762,
            "lat": 40.243549
        }
    },
    {
        "id": 749644,
        "name": "Catalca",
        "country": "TR",
        "coord": {
            "lon": 28.46154,
            "lat": 41.143242
        }
    },
    {
        "id": 298316,
        "name": "Urla",
        "country": "TR",
        "coord": {
            "lon": 26.76403,
            "lat": 38.322922
        }
    },
    {
        "id": 318253,
        "name": "Cizre",
        "country": "TR",
        "coord": {
            "lon": 42.190281,
            "lat": 37.327221
        }
    },
    {
        "id": 738251,
        "name": "Uzun Keupru",
        "country": "TR",
        "coord": {
            "lon": 26.688499,
            "lat": 41.26598
        }
    },
    {
        "id": 303826,
        "name": "Ni\u011fde",
        "country": "TR",
        "coord": {
            "lon": 34.75,
            "lat": 37.833328
        }
    },
    {
        "id": 320871,
        "name": "Bor",
        "country": "TR",
        "coord": {
            "lon": 34.558891,
            "lat": 37.89056
        }
    },
    {
        "id": 324698,
        "name": "Akhisar",
        "country": "TR",
        "coord": {
            "lon": 27.840059,
            "lat": 38.918522
        }
    },
    {
        "id": 304355,
        "name": "Milas",
        "country": "TR",
        "coord": {
            "lon": 27.78389,
            "lat": 37.316391
        }
    },
    {
        "id": 311704,
        "name": "Idil",
        "country": "TR",
        "coord": {
            "lon": 41.8895,
            "lat": 37.341141
        }
    },
    {
        "id": 314188,
        "name": "Goksun",
        "country": "TR",
        "coord": {
            "lon": 36.497299,
            "lat": 38.020962
        }
    },
    {
        "id": 750392,
        "name": "Bozkurt",
        "country": "TR",
        "coord": {
            "lon": 34.01086,
            "lat": 41.957691
        }
    },
    {
        "id": 308221,
        "name": "Kemer",
        "country": "TR",
        "coord": {
            "lon": 29.71306,
            "lat": 36.356541
        }
    },
    {
        "id": 325330,
        "name": "Adiyaman",
        "country": "TR",
        "coord": {
            "lon": 38.276291,
            "lat": 37.764408
        }
    },
    {
        "id": 751214,
        "name": "Bak\u0131rk\u00f6y",
        "country": "TR",
        "coord": {
            "lon": 28.87121,
            "lat": 40.989361
        }
    },
    {
        "id": 322830,
        "name": "Aydin",
        "country": "TR",
        "coord": {
            "lon": 27.83963,
            "lat": 37.845009
        }
    },
    {
        "id": 738668,
        "name": "Torul",
        "country": "TR",
        "coord": {
            "lon": 39.293598,
            "lat": 40.558048
        }
    },
    {
        "id": 324490,
        "name": "Aksehir",
        "country": "TR",
        "coord": {
            "lon": 31.416389,
            "lat": 38.357498
        }
    },
    {
        "id": 322673,
        "name": "Ayvalik",
        "country": "TR",
        "coord": {
            "lon": 26.6954,
            "lat": 39.31905
        }
    },
    {
        "id": 296134,
        "name": "Yunak",
        "country": "TR",
        "coord": {
            "lon": 31.732241,
            "lat": 38.814178
        }
    },
    {
        "id": 443184,
        "name": "I\u011fd\u0131r",
        "country": "TR",
        "coord": {
            "lon": 44,
            "lat": 39.916672
        }
    },
    {
        "id": 311665,
        "name": "Igdir",
        "country": "TR",
        "coord": {
            "lon": 44.044998,
            "lat": 39.92371
        }
    },
    {
        "id": 744110,
        "name": "Karapurcek",
        "country": "TR",
        "coord": {
            "lon": 30.53944,
            "lat": 40.641941
        }
    },
    {
        "id": 304612,
        "name": "Menemen",
        "country": "TR",
        "coord": {
            "lon": 27.06938,
            "lat": 38.60754
        }
    },
    {
        "id": 321136,
        "name": "Bigadic",
        "country": "TR",
        "coord": {
            "lon": 28.131109,
            "lat": 39.392502
        }
    },
    {
        "id": 322965,
        "name": "Avanos",
        "country": "TR",
        "coord": {
            "lon": 34.846668,
            "lat": 38.715
        }
    },
    {
        "id": 311869,
        "name": "Hozat",
        "country": "TR",
        "coord": {
            "lon": 39.221272,
            "lat": 39.108292
        }
    },
    {
        "id": 315795,
        "name": "Elbistan",
        "country": "TR",
        "coord": {
            "lon": 37.198299,
            "lat": 38.20591
        }
    },
    {
        "id": 325336,
        "name": "Adilcevaz",
        "country": "TR",
        "coord": {
            "lon": 42.734219,
            "lat": 38.80389
        }
    },
    {
        "id": 316102,
        "name": "Dursunbey",
        "country": "TR",
        "coord": {
            "lon": 28.625681,
            "lat": 39.58596
        }
    },
    {
        "id": 751324,
        "name": "Bagcilar",
        "country": "TR",
        "coord": {
            "lon": 28.85671,
            "lat": 41.039028
        }
    },
    {
        "id": 299445,
        "name": "Tekirova",
        "country": "TR",
        "coord": {
            "lon": 30.527229,
            "lat": 36.501701
        }
    },
    {
        "id": 743633,
        "name": "Kaynarca",
        "country": "TR",
        "coord": {
            "lon": 30.307501,
            "lat": 41.03083
        }
    },
    {
        "id": 298451,
        "name": "Uluborlu",
        "country": "TR",
        "coord": {
            "lon": 30.45722,
            "lat": 38.077782
        }
    },
    {
        "id": 745714,
        "name": "Havza",
        "country": "TR",
        "coord": {
            "lon": 35.66222,
            "lat": 40.970558
        }
    },
    {
        "id": 315530,
        "name": "Ercis",
        "country": "TR",
        "coord": {
            "lon": 43.358639,
            "lat": 39.02869
        }
    },
    {
        "id": 306112,
        "name": "Kozan",
        "country": "TR",
        "coord": {
            "lon": 35.815731,
            "lat": 37.45517
        }
    },
    {
        "id": 299582,
        "name": "Tatvan",
        "country": "TR",
        "coord": {
            "lon": 42.28167,
            "lat": 38.506672
        }
    },
    {
        "id": 317543,
        "name": "Datca",
        "country": "TR",
        "coord": {
            "lon": 27.68417,
            "lat": 36.737782
        }
    },
    {
        "id": 317681,
        "name": "Dalyan",
        "country": "TR",
        "coord": {
            "lon": 28.6446,
            "lat": 36.83429
        }
    },
    {
        "id": 739847,
        "name": "Selim",
        "country": "TR",
        "coord": {
            "lon": 42.783951,
            "lat": 40.463261
        }
    },
    {
        "id": 314649,
        "name": "Gen\u00e7",
        "country": "TR",
        "coord": {
            "lon": 40.554169,
            "lat": 38.750561
        }
    },
    {
        "id": 744873,
        "name": "Kagizman",
        "country": "TR",
        "coord": {
            "lon": 43.134239,
            "lat": 40.156689
        }
    },
    {
        "id": 316899,
        "name": "Derik",
        "country": "TR",
        "coord": {
            "lon": 40.271111,
            "lat": 37.363331
        }
    },
    {
        "id": 744716,
        "name": "Kandira",
        "country": "TR",
        "coord": {
            "lon": 30.174601,
            "lat": 41.073601
        }
    },
    {
        "id": 314716,
        "name": "Gediz",
        "country": "TR",
        "coord": {
            "lon": 29.41,
            "lat": 39.041672
        }
    },
    {
        "id": 296173,
        "name": "Yuksekova",
        "country": "TR",
        "coord": {
            "lon": 44.287159,
            "lat": 37.57362
        }
    },
    {
        "id": 751950,
        "name": "Ardanuc",
        "country": "TR",
        "coord": {
            "lon": 42.06292,
            "lat": 41.12738
        }
    },
    {
        "id": 745175,
        "name": "Inebolu",
        "country": "TR",
        "coord": {
            "lon": 33.76083,
            "lat": 41.97472
        }
    },
    {
        "id": 745148,
        "name": "Ipsala",
        "country": "TR",
        "coord": {
            "lon": 26.38273,
            "lat": 40.92115
        }
    },
    {
        "id": 744093,
        "name": "Karasu",
        "country": "TR",
        "coord": {
            "lon": 30.785431,
            "lat": 41.070961
        }
    },
    {
        "id": 303798,
        "name": "Nizip",
        "country": "TR",
        "coord": {
            "lon": 37.79417,
            "lat": 37.00972
        }
    },
    {
        "id": 306194,
        "name": "K\u00f6yce\u011fiz",
        "country": "TR",
        "coord": {
            "lon": 28.71792,
            "lat": 36.922039
        }
    },
    {
        "id": 302525,
        "name": "Polatli",
        "country": "TR",
        "coord": {
            "lon": 32.141319,
            "lat": 39.57716
        }
    },
    {
        "id": 309663,
        "name": "Karakocan",
        "country": "TR",
        "coord": {
            "lon": 40.038609,
            "lat": 38.95583
        }
    },
    {
        "id": 325304,
        "name": "Afsin",
        "country": "TR",
        "coord": {
            "lon": 36.91399,
            "lat": 38.247688
        }
    },
    {
        "id": 746821,
        "name": "Gokcebey",
        "country": "TR",
        "coord": {
            "lon": 32.142342,
            "lat": 41.305828
        }
    },
    {
        "id": 304734,
        "name": "Mazidagi",
        "country": "TR",
        "coord": {
            "lon": 40.48806,
            "lat": 37.477501
        }
    },
    {
        "id": 740230,
        "name": "Sapanca",
        "country": "TR",
        "coord": {
            "lon": 30.26738,
            "lat": 40.69141
        }
    },
    {
        "id": 320581,
        "name": "Bozova",
        "country": "TR",
        "coord": {
            "lon": 38.526669,
            "lat": 37.362499
        }
    },
    {
        "id": 298033,
        "name": "Viransehir",
        "country": "TR",
        "coord": {
            "lon": 39.763062,
            "lat": 37.235279
        }
    },
    {
        "id": 739816,
        "name": "Senkaya",
        "country": "TR",
        "coord": {
            "lon": 42.346939,
            "lat": 40.561939
        }
    },
    {
        "id": 310554,
        "name": "Kangal",
        "country": "TR",
        "coord": {
            "lon": 37.391109,
            "lat": 39.23354
        }
    },
    {
        "id": 313669,
        "name": "Gulnar",
        "country": "TR",
        "coord": {
            "lon": 33.399212,
            "lat": 36.34148
        }
    },
    {
        "id": 308776,
        "name": "Kavaklidere",
        "country": "TR",
        "coord": {
            "lon": 28.362761,
            "lat": 37.44463
        }
    },
    {
        "id": 752288,
        "name": "Akyazi",
        "country": "TR",
        "coord": {
            "lon": 30.622219,
            "lat": 40.685001
        }
    },
    {
        "id": 321929,
        "name": "Baskil",
        "country": "TR",
        "coord": {
            "lon": 38.823818,
            "lat": 38.567909
        }
    },
    {
        "id": 745527,
        "name": "Horasan",
        "country": "TR",
        "coord": {
            "lon": 42.172779,
            "lat": 40.04583
        }
    },
    {
        "id": 315639,
        "name": "Emet",
        "country": "TR",
        "coord": {
            "lon": 29.258471,
            "lat": 39.342999
        }
    },
    {
        "id": 315697,
        "name": "Elmali",
        "country": "TR",
        "coord": {
            "lon": 29.917749,
            "lat": 36.735828
        }
    },
    {
        "id": 314903,
        "name": "Foca",
        "country": "TR",
        "coord": {
            "lon": 26.756559,
            "lat": 38.6703
        }
    },
    {
        "id": 320621,
        "name": "Bozkir",
        "country": "TR",
        "coord": {
            "lon": 32.24736,
            "lat": 37.189629
        }
    },
    {
        "id": 741737,
        "name": "Manyas",
        "country": "TR",
        "coord": {
            "lon": 27.969999,
            "lat": 40.046391
        }
    },
    {
        "id": 741438,
        "name": "Muratl\u0131",
        "country": "TR",
        "coord": {
            "lon": 27.499201,
            "lat": 41.172161
        }
    },
    {
        "id": 316411,
        "name": "Dogubayazit",
        "country": "TR",
        "coord": {
            "lon": 44.084171,
            "lat": 39.54694
        }
    },
    {
        "id": 749163,
        "name": "Ciftlikkoy",
        "country": "TR",
        "coord": {
            "lon": 29.32361,
            "lat": 40.660278
        }
    },
    {
        "id": 302355,
        "name": "Reyhanli",
        "country": "TR",
        "coord": {
            "lon": 36.567219,
            "lat": 36.269169
        }
    },
    {
        "id": 741099,
        "name": "Ordu",
        "country": "TR",
        "coord": {
            "lon": 36.701641,
            "lat": 41.09404
        }
    },
    {
        "id": 745047,
        "name": "Ispir",
        "country": "TR",
        "coord": {
            "lon": 40.995571,
            "lat": 40.482868
        }
    },
    {
        "id": 305041,
        "name": "Maden",
        "country": "TR",
        "coord": {
            "lon": 39.67363,
            "lat": 38.39352
        }
    },
    {
        "id": 297789,
        "name": "Yalvac",
        "country": "TR",
        "coord": {
            "lon": 31.17778,
            "lat": 38.295559
        }
    },
    {
        "id": 739107,
        "name": "Tarakli",
        "country": "TR",
        "coord": {
            "lon": 30.492781,
            "lat": 40.396938
        }
    },
    {
        "id": 738154,
        "name": "Vize",
        "country": "TR",
        "coord": {
            "lon": 27.765829,
            "lat": 41.572498
        }
    },
    {
        "id": 300195,
        "name": "Sultanhisar",
        "country": "TR",
        "coord": {
            "lon": 28.157499,
            "lat": 37.889721
        }
    },
    {
        "id": 740205,
        "name": "Saray",
        "country": "TR",
        "coord": {
            "lon": 27.92194,
            "lat": 41.444309
        }
    },
    {
        "id": 316440,
        "name": "Dogansehir",
        "country": "TR",
        "coord": {
            "lon": 37.878891,
            "lat": 38.091942
        }
    },
    {
        "id": 325426,
        "name": "Acipayam",
        "country": "TR",
        "coord": {
            "lon": 29.349409,
            "lat": 37.423851
        }
    },
    {
        "id": 303648,
        "name": "Oguz",
        "country": "TR",
        "coord": {
            "lon": 40.954369,
            "lat": 37.177631
        }
    },
    {
        "id": 324944,
        "name": "Akcakale",
        "country": "TR",
        "coord": {
            "lon": 38.947498,
            "lat": 36.711109
        }
    },
    {
        "id": 739887,
        "name": "\u015eehremini",
        "country": "TR",
        "coord": {
            "lon": 28.931549,
            "lat": 41.015202
        }
    },
    {
        "id": 747158,
        "name": "Fatih",
        "country": "TR",
        "coord": {
            "lon": 28.94083,
            "lat": 41.022499
        }
    },
    {
        "id": 737054,
        "name": "Zile",
        "country": "TR",
        "coord": {
            "lon": 35.886391,
            "lat": 40.303059
        }
    },
    {
        "id": 441811,
        "name": "Kobik",
        "country": "TR",
        "coord": {
            "lon": 40.55611,
            "lat": 37.19611
        }
    },
    {
        "id": 303409,
        "name": "Orhaneli",
        "country": "TR",
        "coord": {
            "lon": 28.990561,
            "lat": 39.903332
        }
    },
    {
        "id": 741850,
        "name": "Macka",
        "country": "TR",
        "coord": {
            "lon": 39.613609,
            "lat": 40.818611
        }
    },
    {
        "id": 312862,
        "name": "Halfeti",
        "country": "TR",
        "coord": {
            "lon": 37.868961,
            "lat": 37.247292
        }
    },
    {
        "id": 306207,
        "name": "Kovancilar",
        "country": "TR",
        "coord": {
            "lon": 39.868061,
            "lat": 38.72139
        }
    },
    {
        "id": 301350,
        "name": "Seferihisar",
        "country": "TR",
        "coord": {
            "lon": 26.83902,
            "lat": 38.196861
        }
    },
    {
        "id": 306474,
        "name": "Korkuteli",
        "country": "TR",
        "coord": {
            "lon": 30.19565,
            "lat": 37.06498
        }
    },
    {
        "id": 300797,
        "name": "Silopi",
        "country": "TR",
        "coord": {
            "lon": 42.46944,
            "lat": 37.249722
        }
    },
    {
        "id": 742659,
        "name": "Korgan",
        "country": "TR",
        "coord": {
            "lon": 37.216671,
            "lat": 40.73333
        }
    },
    {
        "id": 740729,
        "name": "Pamukova",
        "country": "TR",
        "coord": {
            "lon": 30.16732,
            "lat": 40.508099
        }
    },
    {
        "id": 313995,
        "name": "Armutova",
        "country": "TR",
        "coord": {
            "lon": 26.84127,
            "lat": 39.39016
        }
    },
    {
        "id": 308948,
        "name": "Kas",
        "country": "TR",
        "coord": {
            "lon": 29.637659,
            "lat": 36.201759
        }
    },
    {
        "id": 745719,
        "name": "Havsa",
        "country": "TR",
        "coord": {
            "lon": 26.822069,
            "lat": 41.548981
        }
    },
    {
        "id": 308389,
        "name": "Keban",
        "country": "TR",
        "coord": {
            "lon": 38.733608,
            "lat": 38.797779
        }
    },
    {
        "id": 314923,
        "name": "Finike",
        "country": "TR",
        "coord": {
            "lon": 30.14056,
            "lat": 36.294998
        }
    },
    {
        "id": 739636,
        "name": "Sile",
        "country": "TR",
        "coord": {
            "lon": 29.613331,
            "lat": 41.1754
        }
    },
    {
        "id": 305089,
        "name": "Lice",
        "country": "TR",
        "coord": {
            "lon": 40.647499,
            "lat": 38.459171
        }
    },
    {
        "id": 308230,
        "name": "Kemaliye",
        "country": "TR",
        "coord": {
            "lon": 38.496738,
            "lat": 39.262878
        }
    },
    {
        "id": 751503,
        "name": "Aybasti",
        "country": "TR",
        "coord": {
            "lon": 37.39917,
            "lat": 40.686668
        }
    },
    {
        "id": 745344,
        "name": "Ilgaz",
        "country": "TR",
        "coord": {
            "lon": 33.625858,
            "lat": 40.92511
        }
    },
    {
        "id": 301442,
        "name": "Savc\u0131ll\u0131",
        "country": "TR",
        "coord": {
            "lon": 28.76683,
            "lat": 37.954922
        }
    },
    {
        "id": 323828,
        "name": "Anamur",
        "country": "TR",
        "coord": {
            "lon": 32.83691,
            "lat": 36.075081
        }
    },
    {
        "id": 321580,
        "name": "Belek",
        "country": "TR",
        "coord": {
            "lon": 31.055559,
            "lat": 36.862782
        }
    },
    {
        "id": 298088,
        "name": "Varto",
        "country": "TR",
        "coord": {
            "lon": 41.455929,
            "lat": 39.17321
        }
    },
    {
        "id": 302482,
        "name": "Pozanti",
        "country": "TR",
        "coord": {
            "lon": 34.87167,
            "lat": 37.42778
        }
    },
    {
        "id": 321360,
        "name": "Besiri",
        "country": "TR",
        "coord": {
            "lon": 41.2924,
            "lat": 37.918381
        }
    },
    {
        "id": 303872,
        "name": "Nazimiye",
        "country": "TR",
        "coord": {
            "lon": 39.82843,
            "lat": 39.179859
        }
    },
    {
        "id": 312663,
        "name": "Hani",
        "country": "TR",
        "coord": {
            "lon": 40.400002,
            "lat": 38.416672
        }
    },
    {
        "id": 745260,
        "name": "Gokceada",
        "country": "TR",
        "coord": {
            "lon": 25.909019,
            "lat": 40.201069
        }
    },
    {
        "id": 740088,
        "name": "Sarikamis",
        "country": "TR",
        "coord": {
            "lon": 42.573059,
            "lat": 40.338058
        }
    },
    {
        "id": 301483,
        "name": "Sason",
        "country": "TR",
        "coord": {
            "lon": 41.413021,
            "lat": 38.336441
        }
    },
    {
        "id": 323004,
        "name": "Aksu",
        "country": "TR",
        "coord": {
            "lon": 36.916672,
            "lat": 37.533329
        }
    },
    {
        "id": 309166,
        "name": "Karc\u0131",
        "country": "TR",
        "coord": {
            "lon": 29,
            "lat": 37.76667
        }
    },
    {
        "id": 742135,
        "name": "Kurtk\u00f6y",
        "country": "TR",
        "coord": {
            "lon": 29.299999,
            "lat": 40.916672
        }
    },
    {
        "id": 7701054,
        "name": "Kurtulu\u015f",
        "country": "TR",
        "coord": {
            "lon": 36.574162,
            "lat": 41.271
        }
    },
    {
        "id": 320328,
        "name": "Burunyuva",
        "country": "TR",
        "coord": {
            "lon": 27.700001,
            "lat": 37.283329
        }
    },
    {
        "id": 318487,
        "name": "\u00c7\u0131kr\u0131kc\u0131",
        "country": "TR",
        "coord": {
            "lon": 26.98778,
            "lat": 39.556671
        }
    },
    {
        "id": 314135,
        "name": "G\u00f6lba\u015f\u0131",
        "country": "TR",
        "coord": {
            "lon": 30.41917,
            "lat": 37.855282
        }
    },
    {
        "id": 441867,
        "name": "Telharzem",
        "country": "TR",
        "coord": {
            "lon": 40.630562,
            "lat": 37.2425
        }
    },
    {
        "id": 301716,
        "name": "Sar\u0131harman",
        "country": "TR",
        "coord": {
            "lon": 38.460979,
            "lat": 37.717258
        }
    },
    {
        "id": 325333,
        "name": "Ad\u0131mova",
        "country": "TR",
        "coord": {
            "lon": 43.041248,
            "lat": 39.635979
        }
    },
    {
        "id": 750477,
        "name": "Bostanc\u0131l\u0131",
        "country": "TR",
        "coord": {
            "lon": 35.105061,
            "lat": 42.01981
        }
    },
    {
        "id": 302656,
        "name": "P\u0131narca",
        "country": "TR",
        "coord": {
            "lon": 41.852501,
            "lat": 37.980831
        }
    },
    {
        "id": 299982,
        "name": "Tabanl\u0131",
        "country": "TR",
        "coord": {
            "lon": 41.689919,
            "lat": 38.755638
        }
    },
    {
        "id": 297280,
        "name": "Yediyol",
        "country": "TR",
        "coord": {
            "lon": 41.11639,
            "lat": 37.942501
        }
    },
    {
        "id": 308716,
        "name": "Kavurma",
        "country": "TR",
        "coord": {
            "lon": 43.360611,
            "lat": 38.461159
        }
    },
    {
        "id": 312689,
        "name": "Hanca\u011f\u0131z",
        "country": "TR",
        "coord": {
            "lon": 38.86182,
            "lat": 37.091179
        }
    },
    {
        "id": 7549091,
        "name": "Pelitli",
        "country": "TR",
        "coord": {
            "lon": 39.793968,
            "lat": 40.981411
        }
    },
    {
        "id": 744471,
        "name": "Karaca\u00f6ren",
        "country": "TR",
        "coord": {
            "lon": 43.088829,
            "lat": 40.558048
        }
    },
    {
        "id": 7493960,
        "name": "Erzurum Havaalan\u0131",
        "country": "TR",
        "coord": {
            "lon": 41.17226,
            "lat": 39.9562
        }
    },
    {
        "id": 296667,
        "name": "Yo\u011furtlu",
        "country": "TR",
        "coord": {
            "lon": 39.536701,
            "lat": 39.71365
        }
    },
    {
        "id": 297362,
        "name": "Yaz\u0131konak",
        "country": "TR",
        "coord": {
            "lon": 39.299999,
            "lat": 38.61161
        }
    },
    {
        "id": 748822,
        "name": "\u00c7ukur\u00e7engel",
        "country": "TR",
        "coord": {
            "lon": 27.9,
            "lat": 41.166672
        }
    },
    {
        "id": 308664,
        "name": "Kayac\u0131k",
        "country": "TR",
        "coord": {
            "lon": 28.774441,
            "lat": 36.701389
        }
    },
    {
        "id": 737433,
        "name": "Yol\u00f6ren",
        "country": "TR",
        "coord": {
            "lon": 29.57583,
            "lat": 40.24667
        }
    },
    {
        "id": 311616,
        "name": "\u0130kisaray",
        "country": "TR",
        "coord": {
            "lon": 29.48333,
            "lat": 38.683331
        }
    },
    {
        "id": 310839,
        "name": "Kakl\u0131\u00e7",
        "country": "TR",
        "coord": {
            "lon": 26.9881,
            "lat": 38.50877
        }
    },
    {
        "id": 301017,
        "name": "Sarn\u0131\u00e7k\u00f6y",
        "country": "TR",
        "coord": {
            "lon": 27.170589,
            "lat": 38.298489
        }
    },
    {
        "id": 297347,
        "name": "Yaz\u0131l\u0131kaya Yaylas\u0131",
        "country": "TR",
        "coord": {
            "lon": 30.6,
            "lat": 39.150002
        }
    },
    {
        "id": 312872,
        "name": "Halalca",
        "country": "TR",
        "coord": {
            "lon": 27.93944,
            "lat": 39.634441
        }
    },
    {
        "id": 7701435,
        "name": "Osmangazi",
        "country": "TR",
        "coord": {
            "lon": 29.019011,
            "lat": 40.24704
        }
    },
    {
        "id": 742394,
        "name": "K\u00fc\u00e7\u00fck\u00e7ekmece",
        "country": "TR",
        "coord": {
            "lon": 28.78083,
            "lat": 40.99461
        }
    },
    {
        "id": 739812,
        "name": "\u015eenlikk\u00f6y",
        "country": "TR",
        "coord": {
            "lon": 28.79817,
            "lat": 40.976849
        }
    },
    {
        "id": 301393,
        "name": "Sazk\u00f6y",
        "country": "TR",
        "coord": {
            "lon": 29.653061,
            "lat": 37.769981
        }
    },
    {
        "id": 746455,
        "name": "G\u00fclp\u0131nar",
        "country": "TR",
        "coord": {
            "lon": 36.394051,
            "lat": 40.299839
        }
    },
    {
        "id": 323662,
        "name": "Arg\u0131nc\u0131k",
        "country": "TR",
        "coord": {
            "lon": 35.525742,
            "lat": 38.746201
        }
    },
    {
        "id": 307597,
        "name": "Karahan",
        "country": "TR",
        "coord": {
            "lon": 38.116669,
            "lat": 38.416672
        }
    },
    {
        "id": 752389,
        "name": "Akp\u0131nar",
        "country": "TR",
        "coord": {
            "lon": 32.073261,
            "lat": 41.511799
        }
    },
    {
        "id": 7590363,
        "name": "Yaz\u0131ba\u015f\u0131",
        "country": "TR",
        "coord": {
            "lon": 36.873531,
            "lat": 39.821079
        }
    },
    {
        "id": 740920,
        "name": "Ortaova",
        "country": "TR",
        "coord": {
            "lon": 35.51944,
            "lat": 40.813889
        }
    },
    {
        "id": 308659,
        "name": "Kayac\u0131k",
        "country": "TR",
        "coord": {
            "lon": 32.586391,
            "lat": 37.985001
        }
    },
    {
        "id": 301398,
        "name": "Sazg\u0131n",
        "country": "TR",
        "coord": {
            "lon": 37.462669,
            "lat": 36.940399
        }
    },
    {
        "id": 296847,
        "name": "Ye\u015filk\u00f6y",
        "country": "TR",
        "coord": {
            "lon": 30.80139,
            "lat": 36.895561
        }
    },
    {
        "id": 300147,
        "name": "S\u00fcl\u00fcn",
        "country": "TR",
        "coord": {
            "lon": 30.567499,
            "lat": 38.696941
        }
    },
    {
        "id": 311319,
        "name": "\u0130ncirlik",
        "country": "TR",
        "coord": {
            "lon": 35.4361,
            "lat": 36.989719
        }
    },
    {
        "id": 300997,
        "name": "Seyhan",
        "country": "TR",
        "coord": {
            "lon": 35.30592,
            "lat": 36.987469
        }
    },
    {
        "id": 7927407,
        "name": "Bat\u0131 Sitesi",
        "country": "TR",
        "coord": {
            "lon": 32.703629,
            "lat": 39.962212
        }
    },
    {
        "id": 747366,
        "name": "Esenbo\u011fa",
        "country": "TR",
        "coord": {
            "lon": 32.985249,
            "lat": 40.133999
        }
    },
    {
        "id": 297090,
        "name": "Didim",
        "country": "TR",
        "coord": {
            "lon": 27.26778,
            "lat": 37.375561
        }
    },
    {
        "id": 297917,
        "name": "Yahyali",
        "country": "TR",
        "coord": {
            "lon": 35.35704,
            "lat": 38.10228
        }
    },
    {
        "id": 298935,
        "name": "Torbali",
        "country": "TR",
        "coord": {
            "lon": 27.36223,
            "lat": 38.151901
        }
    },
    {
        "id": 299137,
        "name": "Tire",
        "country": "TR",
        "coord": {
            "lon": 27.735081,
            "lat": 38.088772
        }
    },
    {
        "id": 299545,
        "name": "Tavsanli",
        "country": "TR",
        "coord": {
            "lon": 29.498659,
            "lat": 39.54237
        }
    },
    {
        "id": 299900,
        "name": "Talas",
        "country": "TR",
        "coord": {
            "lon": 35.553799,
            "lat": 38.6908
        }
    },
    {
        "id": 300075,
        "name": "Suruc",
        "country": "TR",
        "coord": {
            "lon": 38.42495,
            "lat": 36.976139
        }
    },
    {
        "id": 300371,
        "name": "Soma",
        "country": "TR",
        "coord": {
            "lon": 27.609449,
            "lat": 39.185539
        }
    },
    {
        "id": 300796,
        "name": "Silvan",
        "country": "TR",
        "coord": {
            "lon": 41.00806,
            "lat": 38.141941
        }
    },
    {
        "id": 300808,
        "name": "Silifke",
        "country": "TR",
        "coord": {
            "lon": 33.934441,
            "lat": 36.377781
        }
    },
    {
        "id": 301010,
        "name": "Seydisehir",
        "country": "TR",
        "coord": {
            "lon": 31.84527,
            "lat": 37.419258
        }
    },
    {
        "id": 301116,
        "name": "Sereflikochisar",
        "country": "TR",
        "coord": {
            "lon": 33.538601,
            "lat": 38.939251
        }
    },
    {
        "id": 301172,
        "name": "Senirkent",
        "country": "TR",
        "coord": {
            "lon": 30.548611,
            "lat": 38.104439
        }
    },
    {
        "id": 301209,
        "name": "Semdinli",
        "country": "TR",
        "coord": {
            "lon": 44.5742,
            "lat": 37.305141
        }
    },
    {
        "id": 301256,
        "name": "Selcuk",
        "country": "TR",
        "coord": {
            "lon": 27.36849,
            "lat": 37.95137
        }
    },
    {
        "id": 301537,
        "name": "Sarkisla",
        "country": "TR",
        "coord": {
            "lon": 36.40976,
            "lat": 39.35186
        }
    },
    {
        "id": 301539,
        "name": "Sarkikaraagac",
        "country": "TR",
        "coord": {
            "lon": 31.36639,
            "lat": 38.079441
        }
    },
    {
        "id": 301911,
        "name": "Sandikli",
        "country": "TR",
        "coord": {
            "lon": 30.269461,
            "lat": 38.464722
        }
    },
    {
        "id": 302800,
        "name": "Pazarcik",
        "country": "TR",
        "coord": {
            "lon": 37.29961,
            "lat": 37.486851
        }
    },
    {
        "id": 302819,
        "name": "Patnos",
        "country": "TR",
        "coord": {
            "lon": 42.863441,
            "lat": 39.233608
        }
    },
    {
        "id": 302824,
        "name": "Pasinler",
        "country": "TR",
        "coord": {
            "lon": 41.67635,
            "lat": 39.980309
        }
    },
    {
        "id": 303354,
        "name": "Ortaca",
        "country": "TR",
        "coord": {
            "lon": 28.77083,
            "lat": 36.829441
        }
    },
    {
        "id": 303750,
        "name": "Nusaybin",
        "country": "TR",
        "coord": {
            "lon": 41.2178,
            "lat": 37.077801
        }
    },
    {
        "id": 303827,
        "name": "Nigde",
        "country": "TR",
        "coord": {
            "lon": 34.679352,
            "lat": 37.965832
        }
    },
    {
        "id": 304081,
        "name": "Mus",
        "country": "TR",
        "coord": {
            "lon": 41.506931,
            "lat": 38.745251
        }
    },
    {
        "id": 304196,
        "name": "Mucur",
        "country": "TR",
        "coord": {
            "lon": 34.382858,
            "lat": 39.06147
        }
    },
    {
        "id": 304531,
        "name": "Mercin",
        "country": "TR",
        "coord": {
            "lon": 34.61792,
            "lat": 36.795261
        }
    },
    {
        "id": 304782,
        "name": "Marmaris",
        "country": "TR",
        "coord": {
            "lon": 28.27417,
            "lat": 36.855
        }
    },
    {
        "id": 304797,
        "name": "Mardin",
        "country": "TR",
        "coord": {
            "lon": 40.743568,
            "lat": 37.313091
        }
    },
    {
        "id": 307084,
        "name": "Kiziltepe",
        "country": "TR",
        "coord": {
            "lon": 40.584999,
            "lat": 37.193329
        }
    },
    {
        "id": 307623,
        "name": "Kirkagac",
        "country": "TR",
        "coord": {
            "lon": 27.66925,
            "lat": 39.10638
        }
    },
    {
        "id": 307657,
        "name": "Kirikhan",
        "country": "TR",
        "coord": {
            "lon": 36.357552,
            "lat": 36.49939
        }
    },
    {
        "id": 308024,
        "name": "Keskin",
        "country": "TR",
        "coord": {
            "lon": 33.613609,
            "lat": 39.673061
        }
    },
    {
        "id": 308220,
        "name": "Kemer",
        "country": "TR",
        "coord": {
            "lon": 30.56056,
            "lat": 36.597778
        }
    },
    {
        "id": 310004,
        "name": "Karacoban",
        "country": "TR",
        "coord": {
            "lon": 42.112389,
            "lat": 39.34919
        }
    },
    {
        "id": 310907,
        "name": "Kadinhani",
        "country": "TR",
        "coord": {
            "lon": 32.211391,
            "lat": 38.239719
        }
    },
    {
        "id": 311111,
        "name": "Iskenderun",
        "country": "TR",
        "coord": {
            "lon": 36.17347,
            "lat": 36.587181
        }
    },
    {
        "id": 311314,
        "name": "Incirliova",
        "country": "TR",
        "coord": {
            "lon": 27.72361,
            "lat": 37.852219
        }
    },
    {
        "id": 312899,
        "name": "Hadim",
        "country": "TR",
        "coord": {
            "lon": 32.456741,
            "lat": 36.987759
        }
    },
    {
        "id": 313013,
        "name": "Hacilar",
        "country": "TR",
        "coord": {
            "lon": 35.449371,
            "lat": 38.646309
        }
    },
    {
        "id": 313331,
        "name": "Guroymak",
        "country": "TR",
        "coord": {
            "lon": 42.028111,
            "lat": 38.577389
        }
    },
    {
        "id": 314136,
        "name": "Golbasi",
        "country": "TR",
        "coord": {
            "lon": 37.636669,
            "lat": 37.783611
        }
    },
    {
        "id": 314648,
        "name": "Genc",
        "country": "TR",
        "coord": {
            "lon": 40.560349,
            "lat": 38.75071
        }
    },
    {
        "id": 314665,
        "name": "Gemerek",
        "country": "TR",
        "coord": {
            "lon": 36.071892,
            "lat": 39.183418
        }
    },
    {
        "id": 314812,
        "name": "Gazipasa",
        "country": "TR",
        "coord": {
            "lon": 32.317921,
            "lat": 36.269421
        }
    },
    {
        "id": 315061,
        "name": "Ezine",
        "country": "TR",
        "coord": {
            "lon": 26.34083,
            "lat": 39.78561
        }
    },
    {
        "id": 315401,
        "name": "Ermenek",
        "country": "TR",
        "coord": {
            "lon": 32.891788,
            "lat": 36.64043
        }
    },
    {
        "id": 315515,
        "name": "Erdemli",
        "country": "TR",
        "coord": {
            "lon": 34.308361,
            "lat": 36.60498
        }
    },
    {
        "id": 315621,
        "name": "Emirdag",
        "country": "TR",
        "coord": {
            "lon": 31.15,
            "lat": 39.019718
        }
    },
    {
        "id": 315720,
        "name": "Elmadag",
        "country": "TR",
        "coord": {
            "lon": 33.230831,
            "lat": 39.92083
        }
    },
    {
        "id": 315758,
        "name": "Eleskirt",
        "country": "TR",
        "coord": {
            "lon": 42.673611,
            "lat": 39.803329
        }
    },
    {
        "id": 315905,
        "name": "Egirdir",
        "country": "TR",
        "coord": {
            "lon": 30.85042,
            "lat": 37.874619
        }
    },
    {
        "id": 316284,
        "name": "Dortyol",
        "country": "TR",
        "coord": {
            "lon": 36.228851,
            "lat": 36.86158
        }
    },
    {
        "id": 316542,
        "name": "Diyadin",
        "country": "TR",
        "coord": {
            "lon": 43.671349,
            "lat": 39.540562
        }
    },
    {
        "id": 316634,
        "name": "Dinar",
        "country": "TR",
        "coord": {
            "lon": 30.165569,
            "lat": 38.064999
        }
    },
    {
        "id": 317241,
        "name": "Demirci",
        "country": "TR",
        "coord": {
            "lon": 28.65889,
            "lat": 39.04607
        }
    },
    {
        "id": 317587,
        "name": "Dargecit",
        "country": "TR",
        "coord": {
            "lon": 41.719662,
            "lat": 37.545448
        }
    },
    {
        "id": 317588,
        "name": "Darende",
        "country": "TR",
        "coord": {
            "lon": 37.505829,
            "lat": 38.54583
        }
    },
    {
        "id": 317844,
        "name": "Cumra",
        "country": "TR",
        "coord": {
            "lon": 32.77446,
            "lat": 37.5732
        }
    },
    {
        "id": 318372,
        "name": "Cine",
        "country": "TR",
        "coord": {
            "lon": 28.06139,
            "lat": 37.611671
        }
    },
    {
        "id": 318668,
        "name": "Ceylanpinar",
        "country": "TR",
        "coord": {
            "lon": 40.049999,
            "lat": 36.847221
        }
    },
    {
        "id": 319104,
        "name": "Cay",
        "country": "TR",
        "coord": {
            "lon": 31.02861,
            "lat": 38.591671
        }
    },
    {
        "id": 320004,
        "name": "Caglayancerit",
        "country": "TR",
        "coord": {
            "lon": 37.296219,
            "lat": 37.749592
        }
    },
    {
        "id": 320369,
        "name": "Burhaniye",
        "country": "TR",
        "coord": {
            "lon": 26.972691,
            "lat": 39.500408
        }
    },
    {
        "id": 320448,
        "name": "Bulanik",
        "country": "TR",
        "coord": {
            "lon": 42.270309,
            "lat": 39.092918
        }
    },
    {
        "id": 320552,
        "name": "Bozyazi",
        "country": "TR",
        "coord": {
            "lon": 32.961128,
            "lat": 36.1082
        }
    },
    {
        "id": 320557,
        "name": "Bozuyuk",
        "country": "TR",
        "coord": {
            "lon": 30.036671,
            "lat": 39.90778
        }
    },
    {
        "id": 320879,
        "name": "Bolvadin",
        "country": "TR",
        "coord": {
            "lon": 31.048611,
            "lat": 38.711109
        }
    },
    {
        "id": 321031,
        "name": "Bismil",
        "country": "TR",
        "coord": {
            "lon": 40.665829,
            "lat": 37.84861
        }
    },
    {
        "id": 321337,
        "name": "Besni",
        "country": "TR",
        "coord": {
            "lon": 37.861111,
            "lat": 37.69278
        }
    },
    {
        "id": 321572,
        "name": "Belen",
        "country": "TR",
        "coord": {
            "lon": 36.223309,
            "lat": 36.489109
        }
    },
    {
        "id": 321786,
        "name": "Bayindir",
        "country": "TR",
        "coord": {
            "lon": 27.64744,
            "lat": 38.217411
        }
    },
    {
        "id": 322051,
        "name": "Banaz",
        "country": "TR",
        "coord": {
            "lon": 29.75194,
            "lat": 38.737068
        }
    },
    {
        "id": 322391,
        "name": "Bahce",
        "country": "TR",
        "coord": {
            "lon": 36.57658,
            "lat": 37.197239
        }
    },
    {
        "id": 323094,
        "name": "Askale",
        "country": "TR",
        "coord": {
            "lon": 40.695,
            "lat": 39.92083
        }
    },
    {
        "id": 323777,
        "name": "Antalya",
        "country": "TR",
        "coord": {
            "lon": 30.69556,
            "lat": 36.908119
        }
    },
    {
        "id": 324172,
        "name": "Alasehir",
        "country": "TR",
        "coord": {
            "lon": 28.517179,
            "lat": 38.35083
        }
    },
    {
        "id": 324190,
        "name": "Alanya",
        "country": "TR",
        "coord": {
            "lon": 31.999821,
            "lat": 36.543751
        }
    },
    {
        "id": 325103,
        "name": "Ahlat",
        "country": "TR",
        "coord": {
            "lon": 42.48135,
            "lat": 38.751781
        }
    },
    {
        "id": 438400,
        "name": "Denizciler",
        "country": "TR",
        "coord": {
            "lon": 36.229561,
            "lat": 36.649509
        }
    },
    {
        "id": 442301,
        "name": "Batikent",
        "country": "TR",
        "coord": {
            "lon": 32.730831,
            "lat": 39.96833
        }
    },
    {
        "id": 447273,
        "name": "Dalaman",
        "country": "TR",
        "coord": {
            "lon": 28.802799,
            "lat": 36.765911
        }
    },
    {
        "id": 737071,
        "name": "Zeytinburnu",
        "country": "TR",
        "coord": {
            "lon": 28.904169,
            "lat": 40.994411
        }
    },
    {
        "id": 737421,
        "name": "Yomra",
        "country": "TR",
        "coord": {
            "lon": 39.864052,
            "lat": 40.954109
        }
    },
    {
        "id": 737961,
        "name": "Korfez",
        "country": "TR",
        "coord": {
            "lon": 29.729719,
            "lat": 40.776669
        }
    },
    {
        "id": 738064,
        "name": "Yakuplu",
        "country": "TR",
        "coord": {
            "lon": 28.675819,
            "lat": 40.988941
        }
    },
    {
        "id": 738167,
        "name": "Vezirkopru",
        "country": "TR",
        "coord": {
            "lon": 35.45472,
            "lat": 41.143608
        }
    },
    {
        "id": 738228,
        "name": "Vakfikebir",
        "country": "TR",
        "coord": {
            "lon": 39.27639,
            "lat": 41.04583
        }
    },
    {
        "id": 738377,
        "name": "Umraniye",
        "country": "TR",
        "coord": {
            "lon": 29.12476,
            "lat": 41.01643
        }
    },
    {
        "id": 738618,
        "name": "Turhal",
        "country": "TR",
        "coord": {
            "lon": 36.081108,
            "lat": 40.387501
        }
    },
    {
        "id": 738662,
        "name": "Tosya",
        "country": "TR",
        "coord": {
            "lon": 34.040131,
            "lat": 41.01545
        }
    },
    {
        "id": 738753,
        "name": "Tirebolu",
        "country": "TR",
        "coord": {
            "lon": 38.813889,
            "lat": 41.006939
        }
    },
    {
        "id": 738858,
        "name": "Tepecik",
        "country": "TR",
        "coord": {
            "lon": 28.54978,
            "lat": 41.029308
        }
    },
    {
        "id": 738907,
        "name": "Tekkekoy",
        "country": "TR",
        "coord": {
            "lon": 36.459999,
            "lat": 41.21167
        }
    },
    {
        "id": 739015,
        "name": "Tasova",
        "country": "TR",
        "coord": {
            "lon": 36.322498,
            "lat": 40.75972
        }
    },
    {
        "id": 739061,
        "name": "Taskopru",
        "country": "TR",
        "coord": {
            "lon": 34.214142,
            "lat": 41.5098
        }
    },
    {
        "id": 739209,
        "name": "Susehri",
        "country": "TR",
        "coord": {
            "lon": 38.08667,
            "lat": 40.16444
        }
    },
    {
        "id": 739215,
        "name": "Surmene",
        "country": "TR",
        "coord": {
            "lon": 40.11676,
            "lat": 40.912579
        }
    },
    {
        "id": 739251,
        "name": "Suluova",
        "country": "TR",
        "coord": {
            "lon": 35.647881,
            "lat": 40.83128
        }
    },
    {
        "id": 739549,
        "name": "Sisli",
        "country": "TR",
        "coord": {
            "lon": 28.987169,
            "lat": 41.060459
        }
    },
    {
        "id": 739914,
        "name": "Sebinkarahisar",
        "country": "TR",
        "coord": {
            "lon": 38.423611,
            "lat": 40.28833
        }
    },