[
    {
        "id": 786714,
        "name": "Pristina",
        "country": "XK",
        "coord": {
            "lon": 21.16688,
            "lat": 42.672722
        }
    },
    {
        "id": 785234,
        "name": "Komuna e Th\u00ebrand\u00ebs",
        "country": "XK",
        "coord": {
            "lon": 20.85,
            "lat": 42.349998
        }
    },
    {
        "id": 831101,
        "name": "Komuna e Shtimes",
        "country": "XK",
        "coord": {
            "lon": 21.01667,
            "lat": 42.416672
        }
    },
    {
        "id": 787156,
        "name": "Komuna e Pej\u00ebs",
        "country": "XK",
        "coord": {
            "lon": 20.28997,
            "lat": 42.659679
        }
    },
    {
        "id": 831104,
        "name": "Komuna e Malisheves",
        "country": "XK",
        "coord": {
            "lon": 20.74667,
            "lat": 42.488609
        }
    },
    {
        "id": 791579,
        "name": "Komuna e De\u00e7anit",
        "country": "XK",
        "coord": {
            "lon": 20.28816,
            "lat": 42.539101
        }
    },
    {
        "id": 784096,
        "name": "Op\u0161tina Vu\u010ditrn",
        "country": "XK",
        "coord": {
            "lon": 20.98333,
            "lat": 42.799999
        }
    },
    {
        "id": 784097,
        "name": "Vushtrri",
        "country": "XK",
        "coord": {
            "lon": 20.967501,
            "lat": 42.823059
        }
    },
    {
        "id": 785238,
        "name": "Suva Reka",
        "country": "XK",
        "coord": {
            "lon": 20.825001,
            "lat": 42.358608
        }
    },
    {
        "id": 785485,
        "name": "Shtime",
        "country": "XK",
        "coord": {
            "lon": 21.039721,
            "lat": 42.43306
        }
    },
    {
        "id": 788470,
        "name": "Llazice",
        "country": "XK",
        "coord": {
            "lon": 20.76333,
            "lat": 42.555279
        }
    },
    {
        "id": 788730,
        "name": "Komuna e Leposaviqit",
        "country": "XK",
        "coord": {
            "lon": 20.783331,
            "lat": 43.116669
        }
    },
    {
        "id": 788731,
        "name": "Leposaviq",
        "country": "XK",
        "coord": {
            "lon": 20.80278,
            "lat": 43.103889
        }
    },
    {
        "id": 789995,
        "name": "Komuna e Istogut",
        "country": "XK",
        "coord": {
            "lon": 20.48333,
            "lat": 42.76667
        }
    },
    {
        "id": 789996,
        "name": "Istok",
        "country": "XK",
        "coord": {
            "lon": 20.487499,
            "lat": 42.78083
        }
    },
    {
        "id": 791580,
        "name": "Decan",
        "country": "XK",
        "coord": {
            "lon": 20.28793,
            "lat": 42.54018
        }
    },
    {
        "id": 831053,
        "name": "Republic of Kosovo",
        "country": "XK",
        "coord": {
            "lon": 21,
            "lat": 42.583328
        }
    },
    {
        "id": 784758,
        "name": "Komuna e Ferizajt",
        "country": "XK",
        "coord": {
            "lon": 21.133329,
            "lat": 42.366669
        }
    },
    {
        "id": 830382,
        "name": "Ma\u010ditevo",
        "country": "XK",
        "coord": {
            "lon": 21.014721,
            "lat": 42.346111
        }
    },
    {
        "id": 784371,
        "name": "Komuna e Vitis\u00eb",
        "country": "XK",
        "coord": {
            "lon": 21.366671,
            "lat": 42.333328
        }
    },
    {
        "id": 858978,
        "name": "Muad\u017eeri",
        "country": "XK",
        "coord": {
            "lon": 21.328609,
            "lat": 42.35944
        }
    },
    {
        "id": 786713,
        "name": "Komuna e Prishtin\u00ebs",
        "country": "XK",
        "coord": {
            "lon": 21.283331,
            "lat": 42.700001
        }
    },
    {
        "id": 787824,
        "name": "Mramor",
        "country": "XK",
        "coord": {
            "lon": 21.299999,
            "lat": 42.662781
        }
    },
    {
        "id": 786711,
        "name": "Komuna e Prizrenit",
        "country": "XK",
        "coord": {
            "lon": 20.73333,
            "lat": 42.23333
        }
    },
    {
        "id": 786712,
        "name": "Prizren",
        "country": "XK",
        "coord": {
            "lon": 20.739719,
            "lat": 42.21389
        }
    },
    {
        "id": 831099,
        "name": "Op\u0161tina Kosovo Polje",
        "country": "XK",
        "coord": {
            "lon": 21.049999,
            "lat": 42.599998
        }
    },
    {
        "id": 789228,
        "name": "Kosovo Polje",
        "country": "XK",
        "coord": {
            "lon": 21.096109,
            "lat": 42.639439
        }
    },
    {
        "id": 790673,
        "name": "Komuna e Gjilanit",
        "country": "XK",
        "coord": {
            "lon": 21.450001,
            "lat": 42.466671
        }
    },
    {
        "id": 790674,
        "name": "Gjilan",
        "country": "XK",
        "coord": {
            "lon": 21.46986,
            "lat": 42.460449
        }
    },
    {
        "id": 784759,
        "name": "Ferizaj",
        "country": "XK",
        "coord": {
            "lon": 21.155279,
            "lat": 42.37056
        }
    },
    {
        "id": 787455,
        "name": "Komuna e Rahovecit",
        "country": "XK",
        "coord": {
            "lon": 20.616671,
            "lat": 42.383331
        }
    },
    {
        "id": 787456,
        "name": "Orahovac",
        "country": "XK",
        "coord": {
            "lon": 20.65472,
            "lat": 42.399441
        }
    },
    {
        "id": 791121,
        "name": "Komuna e Dragashit",
        "country": "XK",
        "coord": {
            "lon": 20.65,
            "lat": 42
        }
    },
    {
        "id": 791122,
        "name": "Dragash",
        "country": "XK",
        "coord": {
            "lon": 20.65333,
            "lat": 42.0625
        }
    },
    {
        "id": 785059,
        "name": "Komuna e Mitrovic\u00ebs",
        "country": "XK",
        "coord": {
            "lon": 20.883329,
            "lat": 42.916672
        }
    },
    {
        "id": 789225,
        "name": "Mitrovice",
        "country": "XK",
        "coord": {
            "lon": 20.866671,
            "lat": 42.883331
        }
    },
    {
        "id": 789720,
        "name": "Komuna e Ka\u00e7anikut",
        "country": "XK",
        "coord": {
            "lon": 21.25,
            "lat": 42.200001
        }
    },
    {
        "id": 792919,
        "name": "Banjica",
        "country": "XK",
        "coord": {
            "lon": 21.16444,
            "lat": 42.287781
        }
    },
    {
        "id": 786949,
        "name": "Op\u0161tina Podujevo",
        "country": "XK",
        "coord": {
            "lon": 21.200001,
            "lat": 42.900002
        }
    },
    {
        "id": 786950,
        "name": "Podujeva",
        "country": "XK",
        "coord": {
            "lon": 21.19306,
            "lat": 42.910561
        }
    },
    {
        "id": 788651,
        "name": "Komuna e Lipjanit",
        "country": "XK",
        "coord": {
            "lon": 21.116671,
            "lat": 42.5
        }
    },
    {
        "id": 786606,
        "name": "Radevo",
        "country": "XK",
        "coord": {
            "lon": 21.05472,
            "lat": 42.573059
        }
    },
    {
        "id": 787157,
        "name": "Peje",
        "country": "XK",
        "coord": {
            "lon": 20.28828,
            "lat": 42.65913
        }
    },
    {
        "id": 783770,
        "name": "Zvecan",
        "country": "XK",
        "coord": {
            "lon": 20.840281,
            "lat": 42.907501
        }
    },
    {
        "id": 783802,
        "name": "Zubin Potok",
        "country": "XK",
        "coord": {
            "lon": 20.68972,
            "lat": 42.91444
        }
    },
    {
        "id": 784372,
        "name": "Vitina",
        "country": "XK",
        "coord": {
            "lon": 21.35833,
            "lat": 42.321388
        }
    },
    {
        "id": 785388,
        "name": "Strpce",
        "country": "XK",
        "coord": {
            "lon": 21.02722,
            "lat": 42.239441
        }
    },
    {
        "id": 785642,
        "name": "Srbica",
        "country": "XK",
        "coord": {
            "lon": 20.78861,
            "lat": 42.74667
        }
    },
    {
        "id": 786156,
        "name": "Irzniq",
        "country": "XK",
        "coord": {
            "lon": 20.347219,
            "lat": 42.52
        }
    },
    {
        "id": 786734,
        "name": "Prilep",
        "country": "XK",
        "coord": {
            "lon": 20.31778,
            "lat": 42.5075
        }
    },
    {
        "id": 787155,
        "name": "Peqan",
        "country": "XK",
        "coord": {
            "lon": 20.821939,
            "lat": 42.38361
        }
    },
    {
        "id": 787268,
        "name": "Pagarusa",
        "country": "XK",
        "coord": {
            "lon": 20.74222,
            "lat": 42.419998
        }
    },
    {
        "id": 787534,
        "name": "Obiliq",
        "country": "XK",
        "coord": {
            "lon": 21.07028,
            "lat": 42.686939
        }
    },
    {
        "id": 787650,
        "name": "Nishor",
        "country": "XK",
        "coord": {
            "lon": 20.80167,
            "lat": 42.423889
        }
    },
    {
        "id": 788239,
        "name": "Malisevo",
        "country": "XK",
        "coord": {
            "lon": 20.745831,
            "lat": 42.48222
        }
    },
    {
        "id": 788536,
        "name": "Lumbardhi",
        "country": "XK",
        "coord": {
            "lon": 20.34667,
            "lat": 42.546669
        }
    },
    {
        "id": 788543,
        "name": "Lebushe",
        "country": "XK",
        "coord": {
            "lon": 20.290831,
            "lat": 42.563061
        }
    },
    {
        "id": 788652,
        "name": "Lipljan",
        "country": "XK",
        "coord": {
            "lon": 21.12583,
            "lat": 42.521671
        }
    },
    {
        "id": 788726,
        "name": "Leshan",
        "country": "XK",
        "coord": {
            "lon": 20.781111,
            "lat": 42.327782
        }
    },
    {
        "id": 789199,
        "name": "Kosuriq",
        "country": "XK",
        "coord": {
            "lon": 20.46472,
            "lat": 42.570278
        }
    },
    {
        "id": 789227,
        "name": "Kamenica",
        "country": "XK",
        "coord": {
            "lon": 21.58028,
            "lat": 42.57806
        }
    },
    {
        "id": 789455,
        "name": "Klina",
        "country": "XK",
        "coord": {
            "lon": 20.57778,
            "lat": 42.62167
        }
    },
    {
        "id": 789721,
        "name": "Kacanik",
        "country": "XK",
        "coord": {
            "lon": 21.259439,
            "lat": 42.231941
        }
    },
    {
        "id": 790002,
        "name": "Isniq",
        "country": "XK",
        "coord": {
            "lon": 20.30278,
            "lat": 42.557499
        }
    },
    {
        "id": 790354,
        "name": "Strellc i Eperm",
        "country": "XK",
        "coord": {
            "lon": 20.293461,
            "lat": 42.57835
        }
    },
    {
        "id": 790486,
        "name": "Lluka e Eperme",
        "country": "XK",
        "coord": {
            "lon": 20.307779,
            "lat": 42.544998
        }
    },
    {
        "id": 790701,
        "name": "Glogovac",
        "country": "XK",
        "coord": {
            "lon": 20.89389,
            "lat": 42.62833
        }
    },
    {
        "id": 790704,
        "name": "Gllogjan",
        "country": "XK",
        "coord": {
            "lon": 20.36278,
            "lat": 42.507221
        }
    },
    {
        "id": 790977,
        "name": "Dubova (Driloni)",
        "country": "XK",
        "coord": {
            "lon": 20.36972,
            "lat": 42.711941
        }
    },
    {
        "id": 791043,
        "name": "Dranoc",
        "country": "XK",
        "coord": {
            "lon": 20.292219,
            "lat": 42.51556
        }
    },
    {
        "id": 791161,
        "name": "Strellc i Ulet",
        "country": "XK",
        "coord": {
            "lon": 20.316191,
            "lat": 42.580631
        }
    },
    {
        "id": 791483,
        "name": "Gjinoc",
        "country": "XK",
        "coord": {
            "lon": 20.818609,
            "lat": 42.318329
        }
    },
    {
        "id": 792185,
        "name": "Budakovo",
        "country": "XK",
        "coord": {
            "lon": 20.924999,
            "lat": 42.355
        }
    },
    {
        "id": 793226,
        "name": "Papraqan",
        "country": "XK",
        "coord": {
            "lon": 20.33111,
            "lat": 42.55278
        }
    },
    {
        "id": 830410,
        "name": "Lloqan",
        "country": "XK",
        "coord": {
            "lon": 20.28083,
            "lat": 42.524441
        }
    }
]