[
    {
        "id": 7521435,
        "name": "Pamandzi",
        "country": "YT",
        "coord": {
            "lon": 45.281952,
            "lat": -12.79489
        }
    },
    {
        "id": 921707,
        "name": "Pamanzi Be",
        "country": "YT",
        "coord": {
            "lon": 45.279381,
            "lat": -12.79674
        }
    },
    {
        "id": 7521426,
        "name": "Chirongui",
        "country": "YT",
        "coord": {
            "lon": 45.151058,
            "lat": -12.93497
        }
    },
    {
        "id": 1090415,
        "name": "Chirongui",
        "country": "YT",
        "coord": {
            "lon": 45.148331,
            "lat": -12.93194
        }
    },
    {
        "id": 7521430,
        "name": "Koungou",
        "country": "YT",
        "coord": {
            "lon": 45.20591,
            "lat": -12.73513
        }
    },
    {
        "id": 1090225,
        "name": "Koungou",
        "country": "YT",
        "coord": {
            "lon": 45.20417,
            "lat": -12.73361
        }
    },
    {
        "id": 7521425,
        "name": "Chiconi",
        "country": "YT",
        "coord": {
            "lon": 45.114071,
            "lat": -12.83072
        }
    },
    {
        "id": 1090322,
        "name": "Chiconi",
        "country": "YT",
        "coord": {
            "lon": 45.110561,
            "lat": -12.83333
        }
    },
    {
        "id": 7521421,
        "name": "Acoua",
        "country": "YT",
        "coord": {
            "lon": 45.058109,
            "lat": -12.72215
        }
    },
    {
        "id": 922015,
        "name": "Acoua",
        "country": "YT",
        "coord": {
            "lon": 45.058189,
            "lat": -12.72391
        }
    },
    {
        "id": 7521423,
        "name": "Bandrele",
        "country": "YT",
        "coord": {
            "lon": 45.19389,
            "lat": -12.91113
        }
    },
    {
        "id": 1024031,
        "name": "Mayotte",
        "country": "YT",
        "coord": {
            "lon": 45.166672,
            "lat": -12.83333
        }
    },
    {
        "id": 7521431,
        "name": "Mamoudzou",
        "country": "YT",
        "coord": {
            "lon": 45.22831,
            "lat": -12.77966
        }
    },
    {
        "id": 921815,
        "name": "Mamoudzou",
        "country": "YT",
        "coord": {
            "lon": 45.227219,
            "lat": -12.77944
        }
    },
    {
        "id": 7521437,
        "name": "Tsingoni",
        "country": "YT",
        "coord": {
            "lon": 45.10463,
            "lat": -12.78845
        }
    },
    {
        "id": 1090177,
        "name": "Tsingoni",
        "country": "YT",
        "coord": {
            "lon": 45.102779,
            "lat": -12.78722
        }
    },
    {
        "id": 1090397,
        "name": "Bandrele",
        "country": "YT",
        "coord": {
            "lon": 45.191391,
            "lat": -12.90667
        }
    },
    {
        "id": 7521432,
        "name": "Mtsamboro",
        "country": "YT",
        "coord": {
            "lon": 45.06918,
            "lat": -12.70013
        }
    },
    {
        "id": 1090126,
        "name": "Mtsamboro",
        "country": "YT",
        "coord": {
            "lon": 45.068939,
            "lat": -12.69982
        }
    },
    {
        "id": 921900,
        "name": "Dzaoudzi",
        "country": "YT",
        "coord": {
            "lon": 45.269939,
            "lat": -12.7887
        }
    },
    {
        "id": 921917,
        "name": "Dembeni",
        "country": "YT",
        "coord": {
            "lon": 45.184361,
            "lat": -12.8436
        }
    },
    {
        "id": 1090119,
        "name": "Bandraboua",
        "country": "YT",
        "coord": {
            "lon": 45.122311,
            "lat": -12.7044
        }
    },
    {
        "id": 1090161,
        "name": "MTsangamouji",
        "country": "YT",
        "coord": {
            "lon": 45.083611,
            "lat": -12.75944
        }
    },
    {
        "id": 1090311,
        "name": "Ouangani",
        "country": "YT",
        "coord": {
            "lon": 45.136108,
            "lat": -12.84639
        }
    },
    {
        "id": 1090340,
        "name": "Sada",
        "country": "YT",
        "coord": {
            "lon": 45.102051,
            "lat": -12.85055
        }
    },
    {
        "id": 1090467,
        "name": "Boueni",
        "country": "YT",
        "coord": {
            "lon": 45.076111,
            "lat": -12.9025
        }
    },
    {
        "id": 1090476,
        "name": "Kani Keli",
        "country": "YT",
        "coord": {
            "lon": 45.103329,
            "lat": -12.95361
        }
    }
]