[
    {
        "id": 906044,
        "name": "Monze",
        "country": "ZM",
        "coord": {
            "lon": 27.48333,
            "lat": -16.283331
        }
    },
    {
        "id": 913613,
        "name": "Kansanshi",
        "country": "ZM",
        "coord": {
            "lon": 26.427271,
            "lat": -12.09514
        }
    },
    {
        "id": 902106,
        "name": "Namalindi",
        "country": "ZM",
        "coord": {
            "lon": 27.1,
            "lat": -16.41667
        }
    },
    {
        "id": 921064,
        "name": "Central Province",
        "country": "ZM",
        "coord": {
            "lon": 29,
            "lat": -14
        }
    },
    {
        "id": 904264,
        "name": "Mungule Court",
        "country": "ZM",
        "coord": {
            "lon": 28.1623,
            "lat": -15.22904
        }
    },
    {
        "id": 908734,
        "name": "Lyembo",
        "country": "ZM",
        "coord": {
            "lon": 28.23333,
            "lat": -14.23333
        }
    },
    {
        "id": 900594,
        "name": "North-Western Province",
        "country": "ZM",
        "coord": {
            "lon": 25,
            "lat": -13
        }
    },
    {
        "id": 919814,
        "name": "Chikonkwelo",
        "country": "ZM",
        "coord": {
            "lon": 24.089741,
            "lat": -13.31454
        }
    },
    {
        "id": 901218,
        "name": "Ngambo",
        "country": "ZM",
        "coord": {
            "lon": 25.66667,
            "lat": -13.36667
        }
    },
    {
        "id": 904838,
        "name": "Mulaya",
        "country": "ZM",
        "coord": {
            "lon": 30.116671,
            "lat": -13.13333
        }
    },
    {
        "id": 900969,
        "name": "Ngwata",
        "country": "ZM",
        "coord": {
            "lon": 33.099998,
            "lat": -12.16667
        }
    },
    {
        "id": 916211,
        "name": "Kabuko",
        "country": "ZM",
        "coord": {
            "lon": 31.287729,
            "lat": -11.57095
        }
    },
    {
        "id": 901344,
        "name": "Ndola",
        "country": "ZM",
        "coord": {
            "lon": 28.636589,
            "lat": -12.95867
        }
    },
    {
        "id": 896140,
        "name": "Western Province",
        "country": "ZM",
        "coord": {
            "lon": 24,
            "lat": -15
        }
    },
    {
        "id": 918009,
        "name": "Chiulu",
        "country": "ZM",
        "coord": {
            "lon": 24.16667,
            "lat": -17.35
        }
    },
    {
        "id": 896972,
        "name": "Southern Province",
        "country": "ZM",
        "coord": {
            "lon": 27,
            "lat": -16.5
        }
    },
    {
        "id": 915680,
        "name": "Kanjonja",
        "country": "ZM",
        "coord": {
            "lon": 27.20085,
            "lat": -17.36702
        }
    },
    {
        "id": 917388,
        "name": "Eastern Province",
        "country": "ZM",
        "coord": {
            "lon": 32.25,
            "lat": -13
        }
    },
    {
        "id": 914555,
        "name": "Kamboka",
        "country": "ZM",
        "coord": {
            "lon": 31.15,
            "lat": -14.13333
        }
    },
    {
        "id": 900813,
        "name": "Nkana",
        "country": "ZM",
        "coord": {
            "lon": 28.204741,
            "lat": -12.82633
        }
    },
    {
        "id": 175499,
        "name": "Nchelenge",
        "country": "ZM",
        "coord": {
            "lon": 28.733959,
            "lat": -9.34506
        }
    },
    {
        "id": 176555,
        "name": "Kawambwa",
        "country": "ZM",
        "coord": {
            "lon": 29.07913,
            "lat": -9.7915
        }
    },
    {
        "id": 898188,
        "name": "Siavonga",
        "country": "ZM",
        "coord": {
            "lon": 28.708759,
            "lat": -16.538179
        }
    },
    {
        "id": 899274,
        "name": "Samfya",
        "country": "ZM",
        "coord": {
            "lon": 29.55652,
            "lat": -11.36491
        }
    },
    {
        "id": 899825,
        "name": "Petauke",
        "country": "ZM",
        "coord": {
            "lon": 31.3253,
            "lat": -14.24264
        }
    },
    {
        "id": 904422,
        "name": "Mumbwa",
        "country": "ZM",
        "coord": {
            "lon": 27.06188,
            "lat": -14.97832
        }
    },
    {
        "id": 905846,
        "name": "Mpika",
        "country": "ZM",
        "coord": {
            "lon": 31.452869,
            "lat": -11.83431
        }
    },
    {
        "id": 907111,
        "name": "Mazabuka",
        "country": "ZM",
        "coord": {
            "lon": 27.747999,
            "lat": -15.85601
        }
    },
    {
        "id": 907770,
        "name": "Mansa",
        "country": "ZM",
        "coord": {
            "lon": 28.89431,
            "lat": -11.19976
        }
    },
    {
        "id": 909863,
        "name": "Luanshya",
        "country": "ZM",
        "coord": {
            "lon": 28.416611,
            "lat": -13.13667
        }
    },
    {
        "id": 911148,
        "name": "Kitwe",
        "country": "ZM",
        "coord": {
            "lon": 28.247669,
            "lat": -12.79614
        }
    },
    {
        "id": 912764,
        "name": "Kasama",
        "country": "ZM",
        "coord": {
            "lon": 31.18084,
            "lat": -10.21289
        }
    },
    {
        "id": 913029,
        "name": "Kapiri Mposhi",
        "country": "ZM",
        "coord": {
            "lon": 28.680861,
            "lat": -13.96518
        }
    },
    {
        "id": 914959,
        "name": "Kalulushi",
        "country": "ZM",
        "coord": {
            "lon": 28.091921,
            "lat": -12.83778
        }
    },
    {
        "id": 915883,
        "name": "Kafue",
        "country": "ZM",
        "coord": {
            "lon": 28.18136,
            "lat": -15.76911
        }
    },
    {
        "id": 917748,
        "name": "Choma",
        "country": "ZM",
        "coord": {
            "lon": 26.95306,
            "lat": -16.80648
        }
    },
    {
        "id": 919009,
        "name": "Chingola",
        "country": "ZM",
        "coord": {
            "lon": 27.88382,
            "lat": -12.52897
        }
    },
    {
        "id": 919544,
        "name": "Chililabombwe",
        "country": "ZM",
        "coord": {
            "lon": 27.822861,
            "lat": -12.36475
        }
    },
    {
        "id": 895949,
        "name": "Republic of Zambia",
        "country": "ZM",
        "coord": {
            "lon": 30,
            "lat": -15
        }
    },
    {
        "id": 900601,
        "name": "Northern Province",
        "country": "ZM",
        "coord": {
            "lon": 31,
            "lat": -11
        }
    },
    {
        "id": 901298,
        "name": "Ndumbakahehu",
        "country": "ZM",
        "coord": {
            "lon": 24.216669,
            "lat": -11.33333
        }
    },
    {
        "id": 909845,
        "name": "Luapula Province",
        "country": "ZM",
        "coord": {
            "lon": 29,
            "lat": -11
        }
    },
    {
        "id": 921061,
        "name": "Chaba",
        "country": "ZM",
        "coord": {
            "lon": 29.357861,
            "lat": -11.26445
        }
    },
    {
        "id": 899151,
        "name": "Sande",
        "country": "ZM",
        "coord": {
            "lon": 32.416672,
            "lat": -10.05
        }
    },
    {
        "id": 176947,
        "name": "Kambwali",
        "country": "ZM",
        "coord": {
            "lon": 28.737801,
            "lat": -9.41681
        }
    },
    {
        "id": 909129,
        "name": "Lusaka Province",
        "country": "ZM",
        "coord": {
            "lon": 29,
            "lat": -15.41667
        }
    },
    {
        "id": 909137,
        "name": "Lusaka",
        "country": "ZM",
        "coord": {
            "lon": 28.28713,
            "lat": -15.40669
        }
    },
    {
        "id": 917524,
        "name": "Copperbelt Province",
        "country": "ZM",
        "coord": {
            "lon": 28,
            "lat": -13
        }
    },
    {
        "id": 910111,
        "name": "Livingstone",
        "country": "ZM",
        "coord": {
            "lon": 25.85425,
            "lat": -17.84194
        }
    },
    {
        "id": 905395,
        "name": "Mufulira",
        "country": "ZM",
        "coord": {
            "lon": 28.240709,
            "lat": -12.54982
        }
    },
    {
        "id": 916095,
        "name": "Kabwe",
        "country": "ZM",
        "coord": {
            "lon": 28.44644,
            "lat": -14.4469
        }
    },
    {
        "id": 917889,
        "name": "Chiwempala",
        "country": "ZM",
        "coord": {
            "lon": 27.841021,
            "lat": -12.55203
        }
    },
    {
        "id": 906054,
        "name": "Mongu",
        "country": "ZM",
        "coord": {
            "lon": 23.127411,
            "lat": -15.24835
        }
    },
    {
        "id": 918702,
        "name": "Chipata",
        "country": "ZM",
        "coord": {
            "lon": 32.650002,
            "lat": -13.63333
        }
    },
    {
        "id": 895953,
        "name": "Zambezi",
        "country": "ZM",
        "coord": {
            "lon": 23.10466,
            "lat": -13.54323
        }
    },
    {
        "id": 897045,
        "name": "Solwezi",
        "country": "ZM",
        "coord": {
            "lon": 26.38938,
            "lat": -12.1688
        }
    },
    {
        "id": 898905,
        "name": "Sesheke",
        "country": "ZM",
        "coord": {
            "lon": 24.296841,
            "lat": -17.475929
        }
    },
    {
        "id": 898947,
        "name": "Senanga",
        "country": "ZM",
        "coord": {
            "lon": 23.26667,
            "lat": -16.116671
        }
    },
    {
        "id": 908248,
        "name": "Malabo",
        "country": "ZM",
        "coord": {
            "lon": 28.66667,
            "lat": -13
        }
    },
    {
        "id": 905149,
        "name": "Mukoko",
        "country": "ZM",
        "coord": {
            "lon": 23.15,
            "lat": -15.25
        }
    },
    {
        "id": 899903,
        "name": "Panku",
        "country": "ZM",
        "coord": {
            "lon": 31.91715,
            "lat": -13.26846
        }
    },
    {
        "id": 919255,
        "name": "Chimese",
        "country": "ZM",
        "coord": {
            "lon": 28.866671,
            "lat": -11.16667
        }
    },
    {
        "id": 920928,
        "name": "Chalimbana",
        "country": "ZM",
        "coord": {
            "lon": 28.433331,
            "lat": -15.36667
        }
    },
    {
        "id": 920106,
        "name": "Chichili",
        "country": "ZM",
        "coord": {
            "lon": 25.866671,
            "lat": -17.83333
        }
    },
    {
        "id": 916978,
        "name": "Highlands",
        "country": "ZM",
        "coord": {
            "lon": 25.85,
            "lat": -17.83333
        }
    },
    {
        "id": 896662,
        "name": "Thornton",
        "country": "ZM",
        "coord": {
            "lon": 31.133329,
            "lat": -10.21667
        }
    },
    {
        "id": 898586,
        "name": "Shimpanya",
        "country": "ZM",
        "coord": {
            "lon": 24.799999,
            "lat": -14.81667
        }
    },
    {
        "id": 907439,
        "name": "Masupe",
        "country": "ZM",
        "coord": {
            "lon": 32.566669,
            "lat": -13.55
        }
    },
    {
        "id": 176146,
        "name": "Mbala",
        "country": "ZM",
        "coord": {
            "lon": 31.36587,
            "lat": -8.84024
        }
    },
    {
        "id": 175555,
        "name": "Nakonde",
        "country": "ZM",
        "coord": {
            "lon": 32.744999,
            "lat": -9.34213
        }
    },
    {
        "id": 175961,
        "name": "Mpulungu",
        "country": "ZM",
        "coord": {
            "lon": 31.11405,
            "lat": -8.76234
        }
    },
    {
        "id": 175967,
        "name": "Mporokoso",
        "country": "ZM",
        "coord": {
            "lon": 30.12501,
            "lat": -9.37272
        }
    },
    {
        "id": 176758,
        "name": "Kaputa",
        "country": "ZM",
        "coord": {
            "lon": 29.661921,
            "lat": -8.46887
        }
    },
    {
        "id": 897456,
        "name": "Sinazongwe",
        "country": "ZM",
        "coord": {
            "lon": 27.46179,
            "lat": -17.2614
        }
    },
    {
        "id": 898912,
        "name": "Serenje",
        "country": "ZM",
        "coord": {
            "lon": 30.23522,
            "lat": -13.23251
        }
    },
    {
        "id": 900056,
        "name": "Nyimba",
        "country": "ZM",
        "coord": {
            "lon": 30.814899,
            "lat": -14.55656
        }
    },
    {
        "id": 901766,
        "name": "Namwala",
        "country": "ZM",
        "coord": {
            "lon": 26.438391,
            "lat": -15.75042
        }
    },
    {
        "id": 902344,
        "name": "Nakambala",
        "country": "ZM",
        "coord": {
            "lon": 27.77994,
            "lat": -15.83244
        }
    },
    {
        "id": 902620,
        "name": "Mwinilunga",
        "country": "ZM",
        "coord": {
            "lon": 24.42926,
            "lat": -11.73584
        }
    },
    {
        "id": 902721,
        "name": "Mwense",
        "country": "ZM",
        "coord": {
            "lon": 28.698,
            "lat": -10.38446
        }
    },
    {
        "id": 904241,
        "name": "Mungwi",
        "country": "ZM",
        "coord": {
            "lon": 31.369419,
            "lat": -10.1732
        }
    },
    {
        "id": 905382,
        "name": "Mufumbwe",
        "country": "ZM",
        "coord": {
            "lon": 24.799999,
            "lat": -13.68333
        }
    },
    {
        "id": 905789,
        "name": "Mpongwe",
        "country": "ZM",
        "coord": {
            "lon": 28.155041,
            "lat": -13.50914
        }
    },
    {
        "id": 906221,
        "name": "Mkushi",
        "country": "ZM",
        "coord": {
            "lon": 29.3939,
            "lat": -13.62015
        }
    },
    {
        "id": 908718,
        "name": "Maamba",
        "country": "ZM",
        "coord": {
            "lon": 27.15,
            "lat": -17.366671
        }
    },
    {
        "id": 908913,
        "name": "Luwingu",
        "country": "ZM",
        "coord": {
            "lon": 29.92712,
            "lat": -10.2621
        }
    },
    {
        "id": 909299,
        "name": "Lundazi",
        "country": "ZM",
        "coord": {
            "lon": 33.1782,
            "lat": -12.29292
        }
    },
    {
        "id": 909488,
        "name": "Lukulu",
        "country": "ZM",
        "coord": {
            "lon": 23.241961,
            "lat": -14.37067
        }
    },
    {
        "id": 909887,
        "name": "Luangwa",
        "country": "ZM",
        "coord": {
            "lon": 30.41667,
            "lat": -15.61667
        }
    },
    {
        "id": 910361,
        "name": "Limulunga",
        "country": "ZM",
        "coord": {
            "lon": 23.137581,
            "lat": -15.09691
        }
    },
    {
        "id": 912628,
        "name": "Kasempa",
        "country": "ZM",
        "coord": {
            "lon": 25.833799,
            "lat": -13.45836
        }
    },
    {
        "id": 913323,
        "name": "Kaoma",
        "country": "ZM",
        "coord": {
            "lon": 24.799999,
            "lat": -14.78333
        }
    },
    {
        "id": 915285,
        "name": "Kalengwa",
        "country": "ZM",
        "coord": {
            "lon": 25.00271,
            "lat": -13.46586
        }
    },
    {
        "id": 915471,
        "name": "Kalabo",
        "country": "ZM",
        "coord": {
            "lon": 22.681379,
            "lat": -14.97004
        }
    },
    {
        "id": 916246,
        "name": "Kabompo",
        "country": "ZM",
        "coord": {
            "lon": 24.200809,
            "lat": -13.59268
        }
    },
    {
        "id": 916668,
        "name": "Isoka",
        "country": "ZM",
        "coord": {
            "lon": 32.63353,
            "lat": -10.16062
        }
    },
    {
        "id": 917011,
        "name": "Gwembe",
        "country": "ZM",
        "coord": {
            "lon": 27.606911,
            "lat": -16.497549
        }
    },
    {
        "id": 917688,
        "name": "Chongwe",
        "country": "ZM",
        "coord": {
            "lon": 28.682039,
            "lat": -15.32916
        }
    },
    {
        "id": 918905,
        "name": "Chinsali",
        "country": "ZM",
        "coord": {
            "lon": 32.081619,
            "lat": -10.54142
        }
    },
    {
        "id": 920233,
        "name": "Chibombo",
        "country": "ZM",
        "coord": {
            "lon": 28.07057,
            "lat": -14.65685
        }
    },
    {
        "id": 920820,
        "name": "Chambishi",
        "country": "ZM",
        "coord": {
            "lon": 28.053671,
            "lat": -12.63247
        }
    },
    {
        "id": 920901,
        "name": "Chama",
        "country": "ZM",
        "coord": {
            "lon": 33.1521,
            "lat": -11.21304
        }
    },
    {
        "id": 921028,
        "name": "Chadiza",
        "country": "ZM",
        "coord": {
            "lon": 32.439171,
            "lat": -14.06779
        }
    }
]