[
    {
        "id": 890983,
        "name": "Gokwe",
        "country": "ZW",
        "coord": {
            "lon": 28.9349,
            "lat": -18.20476
        }
    },
    {
        "id": 886841,
        "name": "Mashonaland West Province",
        "country": "ZW",
        "coord": {
            "lon": 29.5,
            "lat": -17
        }
    },
    {
        "id": 887648,
        "name": "Makuti",
        "country": "ZW",
        "coord": {
            "lon": 29.251921,
            "lat": -16.316481
        }
    },
    {
        "id": 886748,
        "name": "Matabeleland North Province",
        "country": "ZW",
        "coord": {
            "lon": 27.5,
            "lat": -19
        }
    },
    {
        "id": 884428,
        "name": "Newlands",
        "country": "ZW",
        "coord": {
            "lon": 31.081671,
            "lat": -17.80806
        }
    },
    {
        "id": 878675,
        "name": "Republic of Zimbabwe",
        "country": "ZW",
        "coord": {
            "lon": 29,
            "lat": -19
        }
    },
    {
        "id": 894366,
        "name": "Chamnanga",
        "country": "ZW",
        "coord": {
            "lon": 30.066669,
            "lat": -22.116671
        }
    },
    {
        "id": 886842,
        "name": "Mashonaland East Province",
        "country": "ZW",
        "coord": {
            "lon": 32,
            "lat": -17.5
        }
    },
    {
        "id": 7385181,
        "name": "Masenda Township",
        "country": "ZW",
        "coord": {
            "lon": 32.22464,
            "lat": -17.21319
        }
    },
    {
        "id": 881164,
        "name": "Shurugwi",
        "country": "ZW",
        "coord": {
            "lon": 30.00589,
            "lat": -19.67016
        }
    },
    {
        "id": 882599,
        "name": "Redcliff",
        "country": "ZW",
        "coord": {
            "lon": 29.783331,
            "lat": -19.033331
        }
    },
    {
        "id": 884979,
        "name": "Mutare",
        "country": "ZW",
        "coord": {
            "lon": 32.67086,
            "lat": -18.970699
        }
    },
    {
        "id": 886990,
        "name": "Marondera",
        "country": "ZW",
        "coord": {
            "lon": 31.551929,
            "lat": -18.18527
        }
    },
    {
        "id": 888710,
        "name": "Kwekwe",
        "country": "ZW",
        "coord": {
            "lon": 29.814859,
            "lat": -18.928101
        }
    },
    {
        "id": 889191,
        "name": "Karoi",
        "country": "ZW",
        "coord": {
            "lon": 29.692471,
            "lat": -16.809931
        }
    },
    {
        "id": 889215,
        "name": "Kariba",
        "country": "ZW",
        "coord": {
            "lon": 28.799999,
            "lat": -16.51667
        }
    },
    {
        "id": 889453,
        "name": "Kadoma",
        "country": "ZW",
        "coord": {
            "lon": 29.91534,
            "lat": -18.333281
        }
    },
    {
        "id": 889942,
        "name": "Hwange",
        "country": "ZW",
        "coord": {
            "lon": 26.50194,
            "lat": -18.36927
        }
    },
    {
        "id": 893697,
        "name": "Chinhoyi",
        "country": "ZW",
        "coord": {
            "lon": 30.200001,
            "lat": -17.366671
        }
    },
    {
        "id": 894239,
        "name": "Chegutu",
        "country": "ZW",
        "coord": {
            "lon": 30.140739,
            "lat": -18.130211
        }
    },
    {
        "id": 895061,
        "name": "Bindura",
        "country": "ZW",
        "coord": {
            "lon": 31.330561,
            "lat": -17.30192
        }
    },
    {
        "id": 895269,
        "name": "Beitbridge",
        "country": "ZW",
        "coord": {
            "lon": 30,
            "lat": -22.216669
        }
    },
    {
        "id": 1085510,
        "name": "Epworth",
        "country": "ZW",
        "coord": {
            "lon": 31.147499,
            "lat": -17.889999
        }
    },
    {
        "id": 1106542,
        "name": "Chitungwiza",
        "country": "ZW",
        "coord": {
            "lon": 31.07555,
            "lat": -18.012739
        }
    },
    {
        "id": 887358,
        "name": "Manicaland Province",
        "country": "ZW",
        "coord": {
            "lon": 32.5,
            "lat": -19
        }
    },
    {
        "id": 882100,
        "name": "Rusape",
        "country": "ZW",
        "coord": {
            "lon": 32.128429,
            "lat": -18.527849
        }
    },
    {
        "id": 890242,
        "name": "Headlands",
        "country": "ZW",
        "coord": {
            "lon": 32.051498,
            "lat": -18.27733
        }
    },
    {
        "id": 886119,
        "name": "Midlands Province",
        "country": "ZW",
        "coord": {
            "lon": 30,
            "lat": -19
        }
    },
    {
        "id": 894015,
        "name": "Chief Sai",
        "country": "ZW",
        "coord": {
            "lon": 28.38097,
            "lat": -18.148081
        }
    },
    {
        "id": 7418156,
        "name": "Yeovil",
        "country": "ZW",
        "coord": {
            "lon": 32.668968,
            "lat": -18.967569
        }
    },
    {
        "id": 890422,
        "name": "Gweru",
        "country": "ZW",
        "coord": {
            "lon": 29.816669,
            "lat": -19.450001
        }
    },
    {
        "id": 878549,
        "name": "Zvishavane",
        "country": "ZW",
        "coord": {
            "lon": 30.066481,
            "lat": -20.32674
        }
    },
    {
        "id": 1105844,
        "name": "Harare Province",
        "country": "ZW",
        "coord": {
            "lon": 31.033331,
            "lat": -17.816669
        }
    },
    {
        "id": 890299,
        "name": "Harare",
        "country": "ZW",
        "coord": {
            "lon": 31.05389,
            "lat": -17.82935
        }
    },
    {
        "id": 1106407,
        "name": "Avenues",
        "country": "ZW",
        "coord": {
            "lon": 31.03944,
            "lat": -17.81889
        }
    },
    {
        "id": 885517,
        "name": "Mucheke Township",
        "country": "ZW",
        "coord": {
            "lon": 30.816669,
            "lat": -20.08333
        }
    },
    {
        "id": 879431,
        "name": "Victoria Falls",
        "country": "ZW",
        "coord": {
            "lon": 25.842991,
            "lat": -17.923531
        }
    },
    {
        "id": 1105843,
        "name": "Bulawayo Province",
        "country": "ZW",
        "coord": {
            "lon": 28.58333,
            "lat": -20.15
        }
    },
    {
        "id": 894701,
        "name": "Bulawayo",
        "country": "ZW",
        "coord": {
            "lon": 28.58333,
            "lat": -20.15
        }
    },
    {
        "id": 884141,
        "name": "Norton",
        "country": "ZW",
        "coord": {
            "lon": 30.700001,
            "lat": -17.883329
        }
    },
    {
        "id": 886843,
        "name": "Mashonaland Central Province",
        "country": "ZW",
        "coord": {
            "lon": 31,
            "lat": -17
        }
    },
    {
        "id": 891099,
        "name": "Glendale",
        "country": "ZW",
        "coord": {
            "lon": 31.067181,
            "lat": -17.355141
        }
    },
    {
        "id": 892876,
        "name": "Concession",
        "country": "ZW",
        "coord": {
            "lon": 30.950001,
            "lat": -17.383329
        }
    },
    {
        "id": 1106398,
        "name": "Mbare",
        "country": "ZW",
        "coord": {
            "lon": 31.03722,
            "lat": -17.858061
        }
    },
    {
        "id": 892711,
        "name": "Dahlia",
        "country": "ZW",
        "coord": {
            "lon": 27.16667,
            "lat": -18.616671
        }
    },
    {
        "id": 886761,
        "name": "Masvingo Province",
        "country": "ZW",
        "coord": {
            "lon": 31,
            "lat": -21
        }
    },
    {
        "id": 886763,
        "name": "Masvingo",
        "country": "ZW",
        "coord": {
            "lon": 30.82766,
            "lat": -20.06373
        }
    },
    {
        "id": 894310,
        "name": "Charara",
        "country": "ZW",
        "coord": {
            "lon": 28.95179,
            "lat": -16.54977
        }
    },
    {
        "id": 1085511,
        "name": "Dunowen",
        "country": "ZW",
        "coord": {
            "lon": 31.116671,
            "lat": -17.89139
        }
    },
    {
        "id": 1085520,
        "name": "Arlington",
        "country": "ZW",
        "coord": {
            "lon": 31.094721,
            "lat": -17.913059
        }
    },
    {
        "id": 893485,
        "name": "Chiredzi",
        "country": "ZW",
        "coord": {
            "lon": 31.66667,
            "lat": -21.049999
        }
    },
    {
        "id": 893549,
        "name": "Chipinge",
        "country": "ZW",
        "coord": {
            "lon": 32.623638,
            "lat": -20.18833
        }
    },
    {
        "id": 1105960,
        "name": "Umvutcha A",
        "country": "ZW",
        "coord": {
            "lon": 28.58861,
            "lat": -20.051941
        }
    },
    {
        "id": 881331,
        "name": "Shangani",
        "country": "ZW",
        "coord": {
            "lon": 29.366671,
            "lat": -19.783331
        }
    },
    {
        "id": 881345,
        "name": "Shamva",
        "country": "ZW",
        "coord": {
            "lon": 31.575609,
            "lat": -17.31159
        }
    },
    {
        "id": 882722,
        "name": "Raffingora",
        "country": "ZW",
        "coord": {
            "lon": 30.433331,
            "lat": -17.033331
        }
    },
    {
        "id": 882859,
        "name": "Plumtree",
        "country": "ZW",
        "coord": {
            "lon": 27.816669,
            "lat": -20.48333
        }
    },
    {
        "id": 882955,
        "name": "Penhalonga",
        "country": "ZW",
        "coord": {
            "lon": 32.697811,
            "lat": -18.891121
        }
    },
    {
        "id": 883183,
        "name": "Odzi",
        "country": "ZW",
        "coord": {
            "lon": 32.405571,
            "lat": -18.96167
        }
    },
    {
        "id": 883258,
        "name": "Nyazura",
        "country": "ZW",
        "coord": {
            "lon": 32.167961,
            "lat": -18.70587
        }
    },
    {
        "id": 883481,
        "name": "Nyanga",
        "country": "ZW",
        "coord": {
            "lon": 32.75,
            "lat": -18.216669
        }
    },
    {
        "id": 884798,
        "name": "Mvurwi",
        "country": "ZW",
        "coord": {
            "lon": 30.85,
            "lat": -17.033331
        }
    },
    {
        "id": 884814,
        "name": "Mvuma",
        "country": "ZW",
        "coord": {
            "lon": 30.52828,
            "lat": -19.27924
        }
    },
    {
        "id": 884927,
        "name": "Mutoko",
        "country": "ZW",
        "coord": {
            "lon": 32.226768,
            "lat": -17.39699
        }
    },
    {
        "id": 885159,
        "name": "Murehwa",
        "country": "ZW",
        "coord": {
            "lon": 31.784,
            "lat": -17.643221
        }
    },
    {
        "id": 885800,
        "name": "Mount Darwin",
        "country": "ZW",
        "coord": {
            "lon": 31.583811,
            "lat": -16.772511
        }
    },
    {
        "id": 886146,
        "name": "Mhangura",
        "country": "ZW",
        "coord": {
            "lon": 30.16828,
            "lat": -16.89386
        }
    },
    {
        "id": 886384,
        "name": "Mazoe",
        "country": "ZW",
        "coord": {
            "lon": 30.973881,
            "lat": -17.50404
        }
    },
    {
        "id": 886864,
        "name": "Mashava",
        "country": "ZW",
        "coord": {
            "lon": 30.48225,
            "lat": -20.03665
        }
    },
    {
        "id": 888089,
        "name": "Macheke",
        "country": "ZW",
        "coord": {
            "lon": 31.849331,
            "lat": -18.139009
        }
    },
    {
        "id": 888225,
        "name": "Lupane",
        "country": "ZW",
        "coord": {
            "lon": 27.806959,
            "lat": -18.93149
        }
    },
    {
        "id": 888667,
        "name": "Lalapanzi",
        "country": "ZW",
        "coord": {
            "lon": 30.177679,
            "lat": -19.332251
        }
    },
    {
        "id": 889390,
        "name": "Kamativi Mine",
        "country": "ZW",
        "coord": {
            "lon": 27.05728,
            "lat": -18.31563
        }
    },
    {
        "id": 889723,
        "name": "Inyathi",
        "country": "ZW",
        "coord": {
            "lon": 28.84687,
            "lat": -19.675631
        }
    },
    {
        "id": 889795,
        "name": "Insiza",
        "country": "ZW",
        "coord": {
            "lon": 29.200001,
            "lat": -19.783331
        }
    },
    {
        "id": 890516,
        "name": "Gwanda",
        "country": "ZW",
        "coord": {
            "lon": 29,
            "lat": -20.933331
        }
    },
    {
        "id": 891515,
        "name": "Filabusi",
        "country": "ZW",
        "coord": {
            "lon": 29.285021,
            "lat": -20.533331
        }
    },
    {
        "id": 891699,
        "name": "Esigodini",
        "country": "ZW",
        "coord": {
            "lon": 28.922609,
            "lat": -20.289789
        }
    },
    {
        "id": 892156,
        "name": "Dorowa Mining Lease",
        "country": "ZW",
        "coord": {
            "lon": 31.75,
            "lat": -19.066669
        }
    },
    {
        "id": 892440,
        "name": "Dete",
        "country": "ZW",
        "coord": {
            "lon": 26.866671,
            "lat": -18.616671
        }
    },
    {
        "id": 893172,
        "name": "Chivhu",
        "country": "ZW",
        "coord": {
            "lon": 30.892179,
            "lat": -19.02112
        }
    },
    {
        "id": 893397,
        "name": "Chirundu",
        "country": "ZW",
        "coord": {
            "lon": 28.85,
            "lat": -16.033331
        }
    },
    {
        "id": 893813,
        "name": "Chimanimani",
        "country": "ZW",
        "coord": {
            "lon": 32.866669,
            "lat": -19.799999
        }
    },
    {
        "id": 894413,
        "name": "Chakari",
        "country": "ZW",
        "coord": {
            "lon": 29.89246,
            "lat": -18.062941
        }
    },
    {
        "id": 894460,
        "name": "Centenary",
        "country": "ZW",
        "coord": {
            "lon": 31.11462,
            "lat": -16.722891
        }
    },
    {
        "id": 895057,
        "name": "Binga",
        "country": "ZW",
        "coord": {
            "lon": 27.341391,
            "lat": -17.620279
        }
    },
    {
        "id": 895308,
        "name": "Beatrice",
        "country": "ZW",
        "coord": {
            "lon": 30.8473,
            "lat": -18.252831
        }
    },
    {
        "id": 895417,
        "name": "Banket",
        "country": "ZW",
        "coord": {
            "lon": 30.4,
            "lat": -17.383329
        }
    },
    {
        "id": 878676,
        "name": "Zimbabwe",
        "country": "ZW",
        "coord": {
            "lon": 30.91667,
            "lat": -20.26667
        }
    }
]